{"source":"OurAirports","airports":[{"id":"TTCP","name":"A.N.R. Robinson International Airport","municipality":"Scarborough","iata":"TAB","icao":"TTCP","latitude":11.149571,"longitude":-60.831298,"country":"Trinidad and Tobago","region":"Tobago","keywords":"Tobago-Crown Point Airport","large":true},{"id":"EKYT","name":"Aalborg Airport","municipality":"Aalborg","iata":"AAL","icao":"EKYT","latitude":57.094763,"longitude":9.84993,"country":"Denmark","region":"North Jutland","large":true},{"id":"EKAH","name":"Aarhus Airport","municipality":"Aarhus","iata":"AAR","icao":"EKAH","latitude":56.303331,"longitude":10.618286,"country":"Denmark","region":"Central Jutland","keywords":"Tirstrup","large":true},{"id":"HADR","name":"Aba Tenna Dejazmach Yilma International Airport","municipality":"Dire Dawa","iata":"DIR","icao":"HADR","latitude":9.623549,"longitude":41.855027,"country":"Ethiopia","region":"Dire Dawa","large":true},{"id":"OIAA","name":"Abadan Ayatollah Jami International Airport","municipality":"Abadan","iata":"ABD","icao":"OIAA","latitude":30.367887,"longitude":48.230075,"country":"Iran","region":"Khuzestan Province","keywords":"Abadan Airport, فرودگاه بین‌المللی آبادان","large":true},{"id":"UNAA","name":"Abakan International Airport","municipality":"Abakan","iata":"ABA","icao":"UNAA","latitude":53.740002,"longitude":91.385002,"country":"Russia","region":"Republic of Khakassia","keywords":"УНАА, Абакан","large":true},{"id":"HTZA","name":"Abeid Amani Karume International Airport","municipality":"Zanzibar","iata":"ZNZ","icao":"HTZA","latitude":-6.22202,"longitude":39.224899,"country":"Tanzania","region":"Kaskazini Unguja Region","keywords":"HTAK, Zanzibar Airport, Kiembi Samaki","large":true},{"id":"MUSC","name":"Abel Santamaria International Airport","municipality":"Santa Clara","iata":"SNU","icao":"MUSC","latitude":22.492215,"longitude":-79.943119,"country":"Cuba","region":"Villa Clara Province","large":true},{"id":"EGPD","name":"Aberdeen International Airport","municipality":"Aberdeen","iata":"ABZ","icao":"EGPD","latitude":57.2019,"longitude":-2.19778,"country":"United Kingdom","region":"Scotland","keywords":"Dyce","large":true},{"id":"OEAB","name":"Abha International Airport","municipality":"Abha","iata":"AHB","icao":"OEAB","latitude":18.2404,"longitude":42.656601,"country":"Saudi Arabia","region":"Asir Region","keywords":"Abha International Airport","large":true},{"id":"MMCS","name":"Abraham González International Airport","municipality":"Ciudad Juárez","iata":"CJS","icao":"MMCS","latitude":31.636673,"longitude":-106.428533,"country":"Mexico","region":"Chihuahua","large":true},{"id":"LIBP","name":"Abruzzo Airport","municipality":"Pescara","iata":"PSR","icao":"LIBP","latitude":42.431079,"longitude":14.182981,"country":"Italy","region":"Abruzzi","keywords":"Pescara, Abruzzo Pasquale Liberi International","large":true},{"id":"LTAF","name":"Adana Şakirpaşa Airport","municipality":"Seyhan","iata":"ADA","icao":"LTAF","latitude":36.982201,"longitude":35.280399,"country":"Turkey","region":"Adana Province","keywords":"Şakirpaşa, Sakirpasa","large":true},{"id":"HAAB","name":"Addis Ababa Bole International Airport","municipality":"Addis Ababa","iata":"ADD","icao":"HAAB","latitude":8.97789,"longitude":38.799301,"country":"Ethiopia","region":"Addis Ababa","keywords":"Haile Selassie I, Bole International Airport","large":true},{"id":"YPAD","name":"Adelaide International Airport","municipality":"Adelaide","iata":"ADL","icao":"YPAD","latitude":-34.947512,"longitude":138.533393,"country":"Australia","region":"South Australia","large":true},{"id":"HCMM","name":"Aden Adde International Airport","municipality":"Mogadishu","iata":"MGQ","icao":"HCMM","latitude":2.01444,"longitude":45.304699,"country":"Somalia","region":"Banaadir","keywords":"HCCM","large":true},{"id":"OYAA","name":"Aden International Airport","municipality":"Aden","iata":"ADE","icao":"OYAA","latitude":12.829564,"longitude":45.029976,"country":"Yemen","region":"Aden Governorate","keywords":"RAF Khormaksar","large":true},{"id":"WARQ","name":"Adisoemarmo International Airport","municipality":"Surakarta","iata":"SOC","icao":"WAHQ","latitude":-7.516044,"longitude":110.757492,"country":"Indonesia","region":"Jawa Tengah (Central Java)","keywords":"WRSQ, WARQ, Adi Soemarmo, Adi Sumarmo","large":true},{"id":"LTBJ","name":"Adnan Menderes International Airport","municipality":"Gaziemir","iata":"ADB","icao":"LTBJ","latitude":38.2924,"longitude":27.157,"country":"Turkey","region":"İzmir Province","keywords":"İzmir","large":true},{"id":"MMTO","name":"Adolfo López Mateos International Airport","municipality":"Toluca","iata":"TLC","icao":"MMTO","latitude":19.3369,"longitude":-99.56583,"country":"Mexico","region":"México (state)","keywords":"Aeropuerto Internacional Adolfo López Mateos","large":true},{"id":"LEMD","name":"Adolfo Suárez Madrid–Barajas Airport","municipality":"Madrid","iata":"MAD","icao":"LEMD","latitude":40.493407,"longitude":-3.572249,"country":"Spain","region":"Madrid (community)","keywords":"Leganés, Madrid Barajas International Airport","large":true},{"id":"SABE","name":"Aeroparque Jorge Newbery","municipality":"Buenos Aires","iata":"AEP","icao":"SABE","latitude":-34.559419,"longitude":-58.415536,"country":"Argentina","region":"Buenos Aires (Autonomous City)","large":true},{"id":"MMAS","name":"Aguascalientes International Airport","municipality":"Aguascalientes","iata":"AGU","icao":"MMAS","latitude":21.699589,"longitude":-102.318372,"country":"Mexico","region":"Aguascalientes","keywords":"Jesús Terán Peredo International Airport, Licenciado Jesús Terán Peredo, Aeropuerto Internacional Jesús Terán Peredo","large":true},{"id":"DAAT","name":"Aguenar – Hadj Bey Akhamok Airport","municipality":"Tamanrasset","iata":"TMR","icao":"DAAT","latitude":22.810992,"longitude":5.450832,"country":"Algeria","region":"Tamanrasset Province","large":true},{"id":"OAKN","name":"Ahmad Shah Baba International Airport","municipality":"Kandahar","iata":"KDH","icao":"OAKN","latitude":31.505769,"longitude":65.847963,"country":"Afghanistan","region":"Kandahar Province","keywords":"Kandahar International Airport, Kandahar Airfield","large":true},{"id":"GUCY","name":"Ahmed Sékou Touré International Airport","municipality":"Conakry","iata":"CKY","icao":"GUCY","latitude":9.57689,"longitude":-13.612,"country":"Guinea","region":"Conakry Special Zone","keywords":"Gbessia International Airport, Conakry International Airport","large":true},{"id":"DNEN","name":"Akanu Ibiam International Airport","municipality":"Enegu","iata":"ENU","icao":"DNEN","latitude":6.473718,"longitude":7.560463,"country":"Nigeria","region":"Enugu State","keywords":"Enegu Airport","large":true},{"id":"URMG","name":"Akhmat Kadyrov Grozny International Airport","municipality":"Grozny","iata":"GRV","icao":"URMG","latitude":43.388106,"longitude":45.699772,"country":"Russia","region":"Chechen Republic","keywords":"Grozny North, Grozny Severny, Grozny, Аэропорт Грозный Северный, Аэропорт Грозный","large":true},{"id":"UATE","name":"Aktau International Airport","municipality":"Aktau","iata":"SCO","icao":"UATE","latitude":43.860093,"longitude":51.09086,"country":"Kazakhstan","region":"Mangystau Region","keywords":"Akshukyr","large":true},{"id":"UATT","name":"Aktobe International Airport","municipality":"Aktobe","iata":"AKX","icao":"UATT","latitude":50.248116,"longitude":57.204144,"country":"Kazakhstan","region":"Aktobe Region","keywords":"Aktyubinsk Airport, Aktubinsk Airport, Аэропорт Актюбинск","large":true},{"id":"BIAR","name":"Akureyri International Airport","municipality":"Akureyri","iata":"AEY","icao":"BIAR","latitude":65.656573,"longitude":-18.072018,"country":"Iceland","region":"Northeastern Region","large":true},{"id":"HLLQ","name":"Al Abraq International Airport","municipality":"Al Albraq","iata":"LAQ","icao":"HLLQ","latitude":32.789036,"longitude":21.954864,"country":"Libya","region":"Al Jabal al Akhdar District","keywords":"Al Bayda, Beida","large":true},{"id":"OMAL","name":"Al Ain International Airport","municipality":"Al Ain","iata":"AAN","icao":"OMAL","latitude":24.2617,"longitude":55.6092,"country":"United Arab Emirates","region":"Abu Dhabi Emirate","large":true},{"id":"OMDW","name":"Al Maktoum International Airport","municipality":"Dubai(Jebel Ali)","iata":"DWC","icao":"OMDW","latitude":24.896171,"longitude":55.16235,"country":"United Arab Emirates","region":"Dubai Emirate","keywords":"Dubai World Central","large":true},{"id":"GMAD","name":"Al Massira Airport","municipality":"Agadir (Temsia)","iata":"AGA","icao":"GMAD","latitude":30.322478,"longitude":-9.412003,"country":"Morocco","region":"Souss-Massa Region","large":true},{"id":"ORNI","name":"Al Najaf International Airport","municipality":"Najaf","iata":"NJF","icao":"ORNI","latitude":31.991116,"longitude":44.405019,"country":"Iraq","region":"Najaf Governorate","large":true},{"id":"OEAH","name":"Al-Ahsa International Airport","municipality":"Hofuf","iata":"HOF","icao":"OEAH","latitude":25.285299,"longitude":49.485199,"country":"Saudi Arabia","region":"Ash Sharqiyah Region","large":true},{"id":"OESK","name":"Al-Jawf International Airport","municipality":"Al-Jawf","iata":"AJF","icao":"OESK","latitude":29.783301,"longitude":40.100905,"country":"Saudi Arabia","region":"Al Jawf Region","keywords":"Al Jouf Airport, Al Jawf, Al Jawf Airport, Al Jouf Regional Airport, Al Jawf Regional Airport","large":true},{"id":"OEAO","name":"Al-Ula International Airport","municipality":"Al-Ula","iata":"ULH","icao":"OEAO","latitude":26.483634,"longitude":38.117048,"country":"Saudi Arabia","region":"Al Madinah Region","keywords":"Prince Abdul majeed bin Abdulaziz Domestic Airport","large":true},{"id":"KALB","name":"Albany International Airport","municipality":"Albany","iata":"ALB","icao":"KALB","latitude":42.748299,"longitude":-73.801697,"country":"United States","region":"New York","large":true},{"id":"KABQ","name":"Albuquerque International Sunport","municipality":"Albuquerque","iata":"ABQ","icao":"KABQ","latitude":35.039976,"longitude":-106.608925,"country":"United States","region":"New Mexico","large":true},{"id":"SLAL","name":"Alcantarí International Airport","municipality":"Sucre","iata":"SRE","icao":"SLAL","latitude":-19.246835,"longitude":-65.149611,"country":"Bolivia","region":"Chuquisaca Department","keywords":"Yamparaez","large":true},{"id":"SPZO","name":"Alejandro Velasco Astete International Airport","municipality":"Cusco","iata":"CUZ","icao":"SPZO","latitude":-13.535699844400002,"longitude":-71.9387969971,"country":"Peru","region":"Cuzco Region","large":true},{"id":"OSAP","name":"Aleppo International Airport","municipality":"Aleppo","iata":"ALP","icao":"OSAP","latitude":36.181262,"longitude":37.226869,"country":"Syria","region":"Aleppo Governorate","keywords":"مطار حلب الدولي","large":true},{"id":"ENAL","name":"Ålesund Airport","municipality":"Ålesund","iata":"AES","icao":"ENAL","latitude":62.560443,"longitude":6.110845,"country":"Norway","region":"Møre og Romsdal","keywords":"Vigra, Ålesund Vigra Airport","large":true},{"id":"UGSB","name":"Alexander Kartveli Batumi International Airport","municipality":"Batumi","iata":"BUS","icao":"UGSB","latitude":41.60939,"longitude":41.600315,"country":"Georgia","region":"Autonomous Republic of Adjara","keywords":"Batumi, batumi, Black Sea","large":true},{"id":"HEBA","name":"Alexandria International Airport","municipality":"Alexandria","iata":"HBE","icao":"HEAX","latitude":30.93249,"longitude":29.696437,"country":"Egypt","region":"Alexandria Governorate","large":true},{"id":"UNEE","name":"Alexei Leonov Kemerovo International Airport","municipality":"Kemerovo","iata":"KEJ","icao":"UNEE","latitude":55.2701,"longitude":86.107201,"country":"Russia","region":"Kemerovo Oblast","large":true},{"id":"SKCL","name":"Alfonso Bonilla Aragon International Airport","municipality":"Cali","iata":"CLO","icao":"SKCL","latitude":3.542717,"longitude":-76.381898,"country":"Colombia","region":"Valle del Cauca Department","keywords":"Palmaseca International, 02-20","large":true},{"id":"LEAL","name":"Alicante-Elche Miguel Hernández Airport","municipality":"Alicante","iata":"ALC","icao":"LEAL","latitude":38.2822,"longitude":-0.558156,"country":"Spain","region":"Valencia (community)","large":true},{"id":"OPLA","name":"Allama Iqbal International Airport","municipality":"Lahore","iata":"LHE","icao":"OPLA","latitude":31.521601,"longitude":74.403603,"country":"Pakistan","region":"Punjab","keywords":"OPLR","large":true},{"id":"UAAA","name":"Almaty International Airport","municipality":"Almaty","iata":"ALA","icao":"UAAA","latitude":43.354267,"longitude":77.042828,"country":"Kazakhstan","region":"Almaty City","keywords":"Alma Ata","large":true},{"id":"UOOO","name":"Alykel International Airport","municipality":"Norilsk","iata":"NSK","icao":"UOOO","latitude":69.307951,"longitude":87.325906,"country":"Russia","region":"Krasnoyarsk Krai","large":true},{"id":"FMNM","name":"Amborovy Airport","municipality":"Mahajanga","iata":"MJN","icao":"FMNM","latitude":-15.666842,"longitude":46.351233,"country":"Madagascar","region":"Mahajanga","keywords":"Philibert Tsiranana Airport, Mahajanga","large":true},{"id":"GVAC","name":"Amílcar Cabral International Airport","municipality":"Espargos","iata":"SID","icao":"GVAC","latitude":16.7414,"longitude":-22.9494,"country":"Cape Verde","region":"Barlavento Islands","keywords":"Sal Island","large":true},{"id":"EHAM","name":"Amsterdam Airport Schiphol","municipality":"Amsterdam","iata":"AMS","icao":"EHAM","latitude":52.308601,"longitude":4.76389,"country":"Netherlands","region":"Noord-Holland","large":true},{"id":"SCFA","name":"Andrés Sabella Gálvez International Airport","municipality":"Antofagasta","iata":"ANF","icao":"SCFA","latitude":-23.445274,"longitude":-70.445232,"country":"Chile","region":"Antofagasta Region","keywords":"Cerro Moreno Airport","large":true},{"id":"DABB","name":"Annaba Rabah Bitat Airport","municipality":"Annaba","iata":"AAE","icao":"DABB","latitude":36.826781,"longitude":7.81334,"country":"Algeria","region":"Annaba Province","keywords":"Les Salines Airport, El Mellah Airport, Annabah","large":true},{"id":"LTAI","name":"Antalya International Airport","municipality":"Antalya","iata":"AYT","icao":"LTAI","latitude":36.898701,"longitude":30.800501,"country":"Turkey","region":"Antalya Province","large":true},{"id":"FCPP","name":"Antonio Agostinho-Neto International Airport","municipality":"Pointe Noire","iata":"PNR","icao":"FCPP","latitude":-4.81603,"longitude":11.8866,"country":"Republic of the Congo","region":"Kouilou Department","keywords":"Pointe Noire","large":true},{"id":"PGUM","name":"Antonio B. Won Pat International Airport","municipality":"Hagåtña","iata":"GUM","icao":"PGUM","latitude":13.485,"longitude":144.797282,"country":"Guam","region":"(unassigned)","keywords":"NGM, NAS Agana","large":true},{"id":"MUCU","name":"Antonio Maceo International Airport","municipality":"Santiago","iata":"SCU","icao":"MUCU","latitude":19.97474,"longitude":-75.835504,"country":"Cuba","region":"Santiago de Cuba Province","large":true},{"id":"RJSA","name":"Aomori Airport","municipality":"Aomori","iata":"AOJ","icao":"RJSA","latitude":40.733777,"longitude":140.689477,"country":"Japan","region":"Aomori Prefecture","large":true},{"id":"TVSA","name":"Argyle International Airport","municipality":"Kingstown","iata":"SVD","icao":"TVSA","latitude":13.159725,"longitude":-61.148801,"country":"Saint Vincent and the Grenadines","region":"Saint George","large":true},{"id":"GVBA","name":"Aristides Pereira International Airport","municipality":"Rabil","iata":"BVC","icao":"GVBA","latitude":16.136499,"longitude":-22.888901,"country":"Cape Verde","region":"Barlavento Islands","keywords":"Boa Vista Island","large":true},{"id":"SVVA","name":"Arturo Michelena International Airport","municipality":"Valencia","iata":"VLN","icao":"SVVA","latitude":10.149733,"longitude":-67.928398,"country":"Venezuela","region":"Carabobo State","large":true},{"id":"DNAS","name":"Asaba International Airport","municipality":"Asaba","iata":"ABB","icao":"DNAS","latitude":6.204167,"longitude":6.665278,"country":"Nigeria","region":"Delta State","keywords":"Onitsha","large":true},{"id":"UTAA","name":"Ashgabat International Airport","municipality":"Ashgabat","iata":"ASB","icao":"UTAA","latitude":37.986801,"longitude":58.361,"country":"Turkmenistan","region":"Ashgabat (city)","keywords":"Saparmurat Turkmenbashy International Airport","large":true},{"id":"URWA","name":"Astrakhan Narimanovo Boris M. Kustodiev International Airport","municipality":"Astrakhan","iata":"ASF","icao":"URWA","latitude":46.282843,"longitude":48.010511,"country":"Russia","region":"Astrakhan Oblast","keywords":"Astrahan Airport, Narimanovo Airport, Аэропорт Астрахань, Аэропорт Нариманово","large":true},{"id":"LEAS","name":"Asturias Airport","municipality":"Ranón","iata":"OVD","icao":"LEAS","latitude":43.563599,"longitude":-6.03462,"country":"Spain","region":"Asturias","large":true},{"id":"HESN","name":"Aswan International Airport","municipality":"Aswan","iata":"ASW","icao":"HESN","latitude":23.961075,"longitude":32.820382,"country":"Egypt","region":"Aswan Governorate","keywords":"aswan airport","large":true},{"id":"HEAT","name":"Asyut International Airport","municipality":"Asyut","iata":"ATZ","icao":"HEAT","latitude":27.045962,"longitude":31.01276,"country":"Egypt","region":"Asyut Governorate","keywords":"Asyut","large":true},{"id":"LGAV","name":"Athens Eleftherios Venizelos International Airport","municipality":"Spata-Artemida","iata":"ATH","icao":"LGAV","latitude":37.936401,"longitude":23.9445,"country":"Greece","region":"Attica","large":true},{"id":"SBBV","name":"Atlas Brasil Cantanhede International Airport","municipality":"Boa Vista","iata":"BVB","icao":"SBBV","latitude":2.84615,"longitude":-60.690648,"country":"Brazil","region":"Roraima","keywords":"Boa Vista International Airport","large":true},{"id":"UATG","name":"Atyrau International Airport","municipality":"Atyrau","iata":"GUW","icao":"UATG","latitude":47.121318,"longitude":51.820343,"country":"Kazakhstan","region":"Atyrau Region","large":true},{"id":"NZAA","name":"Auckland International Airport","municipality":"Auckland","iata":"AKL","icao":"NZAA","latitude":-37.01199,"longitude":174.786331,"country":"New Zealand","region":"Auckland Region","large":true},{"id":"MNMG","name":"Augusto C. Sandino (Managua) International Airport","municipality":"Managua","iata":"MGA","icao":"MNMG","latitude":12.1415,"longitude":-86.168198,"country":"Nicaragua","region":"Managua Department","large":true},{"id":"KAUS","name":"Austin Bergstrom International Airport","municipality":"Austin","iata":"AUS","icao":"KAUS","latitude":30.197535,"longitude":-97.662015,"country":"United States","region":"Texas","keywords":"BSM, KBSM, Bergstrom AFB","large":true},{"id":"LRCL","name":"Avram Iancu Cluj International Airport","municipality":"Cluj-Napoca","iata":"CLJ","icao":"LRCL","latitude":46.786042,"longitude":23.685733,"country":"Romania","region":"Cluj County","keywords":"Someşeni Airport","large":true},{"id":"OIKK","name":"Ayatollah Hashemi Rafsanjani International Airport","municipality":"Kerman","iata":"KER","icao":"OIKK","latitude":30.271276,"longitude":56.949692,"country":"Iran","region":"Kerman Province","large":true},{"id":"LRBC","name":"Bacău George Enescu International  Airport","municipality":"Bacău","iata":"BCM","icao":"LRBC","latitude":46.5219,"longitude":26.910299,"country":"Romania","region":"Bacău County","keywords":"Bacau, RoAF 95th Air Base","large":true},{"id":"OPPS","name":"Bacha Khan International Airport","municipality":"Peshawar","iata":"PEW","icao":"OPPS","latitude":33.9939,"longitude":71.514603,"country":"Pakistan","region":"Khyber Pakhtunkhwa","keywords":"Peshawar International Airport","large":true},{"id":"MMCL","name":"Bachigualato Federal International Airport","municipality":"Culiacán","iata":"CUL","icao":"MMCL","latitude":24.76504,"longitude":-107.475228,"country":"Mexico","region":"Sinaloa","keywords":"Federal de Bachigualato International Airport, Culiacán International Airport","large":true},{"id":"RPVB","name":"Bacolod-Silay International Airport","municipality":"Bacolod City","iata":"BCD","icao":"RPVB","latitude":10.776237,"longitude":123.018879,"country":"Philippines","region":"Negros Occidental Province","large":true},{"id":"VEBD","name":"Bagdogra Airport","municipality":"Siliguri","iata":"IXB","icao":"VEBD","latitude":26.6812,"longitude":88.328598,"country":"India","region":"West Bengal","keywords":"Bagdogra Air Force Station","large":true},{"id":"ORBI","name":"Baghdad International Airport / New Al Muthana Air Base","municipality":"Baghdad","iata":"BGW","icao":"ORBI","latitude":33.262501,"longitude":44.2346,"country":"Iraq","region":"Baghdad Governorate","keywords":"SDA, BIAP, VBC, ORBS, Camp Sather, Saddam International Airport, Al Anbar Airport","large":true},{"id":"MMBT","name":"Bahías de Huatulco International Airport","municipality":"Huatulco","iata":"HUX","icao":"MMBT","latitude":15.775437,"longitude":-96.260456,"country":"Mexico","region":"Oaxaca","large":true},{"id":"OBBI","name":"Bahrain International Airport","municipality":"Manama","iata":"BAH","icao":"OBBI","latitude":26.267295,"longitude":50.63764,"country":"Bahrain","region":"Muharraq Governorate","keywords":"مطار البحرين الدولي, EGYR, RAF Bahrain, RAF Muharraq","large":true},{"id":"UIUU","name":"Baikal International Airport","municipality":"Ulan Ude","iata":"UUD","icao":"UIUU","latitude":51.808614,"longitude":107.439652,"country":"Russia","region":"Republic of Buryat","keywords":"Mukhino Airport, Ulan-Ude Airport","large":true},{"id":"UAOL","name":"Baikonur Krayniy International Airport","municipality":"Baikonur","iata":"BXY","icao":"UAOL","latitude":45.621994,"longitude":63.210773,"country":"Kazakhstan","region":"Baikonur City","keywords":"Krayniy Airport, Аэропорт Крайний","large":true},{"id":"LTFD","name":"Balıkesir Koca Seyit Airport","municipality":"Edremit","iata":"EDO","icao":"LTFD","latitude":39.552533,"longitude":27.010192,"country":"Turkey","region":"Balıkesir Province","large":true},{"id":"KBWI","name":"Baltimore/Washington International Thurgood Marshall Airport","municipality":"Baltimore","iata":"BWI","icao":"KBWI","latitude":39.1754,"longitude":-76.668297,"country":"United States","region":"Maryland","keywords":"WAS, Friendship International","large":true},{"id":"OIKB","name":"Bandar Abbas International Airport","municipality":"Bandar Abbas","iata":"BND","icao":"OIKB","latitude":27.2183,"longitude":56.3778,"country":"Iran","region":"Hormozgan Province","large":true},{"id":"VCBI","name":"Bandaranaike International Colombo Airport","municipality":"Colombo","iata":"CMB","icao":"VCBI","latitude":7.180759906768799,"longitude":79.88410186767578,"country":"Sri Lanka","region":"Western Province","keywords":"RAF Negombo, Katunayake International Airport","large":true},{"id":"FZIC","name":"Bangoka International Airport","municipality":"Kisangani","iata":"FKI","icao":"FZIC","latitude":0.481639,"longitude":25.337999,"country":"Democratic Republic of the Congo","region":"Tshopo Province","large":true},{"id":"FEFF","name":"Bangui M'Poko International Airport","municipality":"Bangui","iata":"BGF","icao":"FEFF","latitude":4.39848,"longitude":18.518801,"country":"Central African Republic","region":"Ombella-M'Poko","large":true},{"id":"LQBK","name":"Banja Luka International Airport","municipality":"Mahovljani","iata":"BNX","icao":"LQBK","latitude":44.941399,"longitude":17.297501,"country":"Bosnia and Herzegovina","region":"Republika Srpska","keywords":"Mahovljani Airport","large":true},{"id":"GBYD","name":"Banjul International Airport","municipality":"Banjul (Yundum)","iata":"BJL","icao":"GBYD","latitude":13.338,"longitude":-16.652201,"country":"Gambia","region":"Western Division","keywords":"Yundum international Airport","large":true},{"id":"ZBOW","name":"Baotou Donghe International Airport","municipality":"Baotou","iata":"BAV","icao":"ZBOW","latitude":40.560001,"longitude":109.997002,"country":"China","region":"Inner Mongolia Autonomous Region","keywords":"Erliban, 包头东河","large":true},{"id":"LIBD","name":"Bari Karol Wojtyła International Airport","municipality":"Bari","iata":"BRI","icao":"LIBD","latitude":41.138901,"longitude":16.760599,"country":"Italy","region":"Apulia","keywords":"Bari \"Karol Wojtyla\" International Airport, Palese Macchie Airport, Palese Airport","large":true},{"id":"UNBB","name":"Barnaul Gherman Titov International Airport","municipality":"Barnaul","iata":"BAX","icao":"UNBB","latitude":53.361285,"longitude":83.539701,"country":"Russia","region":"Altai Krai","keywords":"Аэропорт Барнаул, Barnaul West, Mikhaylovka, Novomikhaylovka","large":true},{"id":"ORMM","name":"Basra International Airport","municipality":"Basra","iata":"BSR","icao":"ORMM","latitude":30.549101,"longitude":47.662102,"country":"Iraq","region":"Basra Governorate","keywords":"Basrah","large":true},{"id":"LFKB","name":"Bastia-Poretta International airport","municipality":"Bastia","iata":"BIA","icao":"LFKB","latitude":42.5527,"longitude":9.48373,"country":"France","region":"Corsica","large":true},{"id":"FGBT","name":"Bata International Airport","municipality":"Bata","iata":"BSG","icao":"FGBT","latitude":1.90547,"longitude":9.80568,"country":"Equatorial Guinea","region":"Litoral Province","large":true},{"id":"DABT","name":"Batna Mostefa Ben Boulaid Airport","municipality":"Batna","iata":"BLJ","icao":"DABT","latitude":35.752102,"longitude":6.30859,"country":"Algeria","region":"Batna Province","large":true},{"id":"NVVV","name":"Bauerfield International Airport","municipality":"Port Vila","iata":"VLI","icao":"NVVV","latitude":-17.699301,"longitude":168.320007,"country":"Vanuatu","region":"Shefa","keywords":"Efate Field, Vila Field, McDonald Field, Bauer Field","large":true},{"id":"LFOB","name":"Beauvais-Tillé airport","municipality":"Beauvais","iata":"BVA","icao":"LFOB","latitude":49.454399,"longitude":2.11278,"country":"France","region":"Hauts-de-France","keywords":"Beauvais-Tillé","large":true},{"id":"ZBAA","name":"Beijing Capital International Airport","municipality":"Beijing","iata":"PEK","icao":"ZBAA","latitude":40.077349,"longitude":116.596702,"country":"China","region":"Beijing Municipality","keywords":"BJS, Beijing, Peking, 北京, 北京首都国际机场, 北京首都机场, 北京机场","large":true},{"id":"ZBAD","name":"Beijing Daxing International Airport","municipality":"Beijing","iata":"PKX","icao":"ZBAD","latitude":39.501289,"longitude":116.413967,"country":"China","region":"Beijing Municipality","large":true},{"id":"FQBR","name":"Beira International Airport","municipality":"Beira","iata":"BEW","icao":"FQBR","latitude":-19.7964,"longitude":34.9076,"country":"Mozambique","region":"Sofala Province","large":true},{"id":"OLBA","name":"Beirut Rafic Hariri International Airport","municipality":"Beirut","iata":"BEY","icao":"OLBA","latitude":33.819833,"longitude":35.487443,"country":"Lebanon","region":"Mount Lebanon Governorate","keywords":"Chaldea, Beirut Air Base, مطار بيروت رفيق الحريري الدولي","large":true},{"id":"EGAA","name":"Belfast International Airport","municipality":"Belfast","iata":"BFS","icao":"EGAA","latitude":54.6575012207,"longitude":-6.2158298492399995,"country":"United Kingdom","region":"Northern Ireland","keywords":"Aldergrove, RAF Aldergrove","large":true},{"id":"LYBE","name":"Belgrade Nikola Tesla Airport","municipality":"Belgrade","iata":"BEG","icao":"LYBE","latitude":44.818401,"longitude":20.309099,"country":"Serbia","region":"Beograd (city)","keywords":"Beograd, Surčin Airport","large":true},{"id":"LLBG","name":"Ben Gurion International Airport","municipality":"Tel Aviv","iata":"TLV","icao":"LLBG","latitude":32.011398,"longitude":34.8867,"country":"Israel","region":"Central District","large":true},{"id":"HCMF","name":"Bender Qassim International Airport","municipality":"Bosaso","iata":"BSA","icao":"HCMF","latitude":11.275235,"longitude":49.139231,"country":"Somalia","region":"Bari","large":true},{"id":"GMMD","name":"Beni Mellal Airport","municipality":"Oulad Yaich","iata":"BEM","icao":"GMMD","latitude":32.401895,"longitude":-6.315905,"country":"Morocco","region":"Béni Mellal-Khénifra Region","large":true},{"id":"HLLB","name":"Benina International Airport","municipality":"Benina","iata":"BEN","icao":"HLLB","latitude":32.096802,"longitude":20.269501,"country":"Libya","region":"Benghazi District","keywords":"Benghazi, Soluch Airfield","large":true},{"id":"ENBR","name":"Bergen Airport, Flesland","municipality":"Bergen","iata":"BGO","icao":"ENBR","latitude":60.2934,"longitude":5.21814,"country":"Norway","region":"Vestland","large":true},{"id":"EDDB","name":"Berlin Brandenburg Airport","municipality":"Berlin","iata":"BER","icao":"EDDB","latitude":52.361738,"longitude":13.502341,"country":"Germany","region":"Brandenburg","keywords":"Willy Brandt","large":true},{"id":"RPLK","name":"Bicol International Airport","municipality":"Legazpi","iata":"DRP","icao":"RPLK","latitude":13.111915,"longitude":123.676829,"country":"Philippines","region":"Albay Province","keywords":"Daraga, Southern Luzon International Airport","large":true},{"id":"VEBS","name":"Biju Patnaik International Airport","municipality":"Bhubaneswar","iata":"BBI","icao":"VEBS","latitude":20.251021,"longitude":85.814747,"country":"India","region":"Odisha","large":true},{"id":"LEBB","name":"Bilbao Airport","municipality":"Bilbao","iata":"BIO","icao":"LEBB","latitude":43.301102,"longitude":-2.91061,"country":"Spain","region":"Basque Country","large":true},{"id":"EKBI","name":"Billund Airport","municipality":"Billund","iata":"BLL","icao":"EKBI","latitude":55.740335,"longitude":9.157019,"country":"Denmark","region":"South Denmark","large":true},{"id":"VEIM","name":"Bir Tikendrajit International Airport","municipality":"Imphal","iata":"IMF","icao":"VEIM","latitude":24.76,"longitude":93.896698,"country":"India","region":"Manipur","keywords":"Imphal","large":true},{"id":"OIMB","name":"Birjand International Airport","municipality":"Birjand","iata":"XBJ","icao":"OIMB","latitude":32.896525,"longitude":59.281258,"country":"Iran","region":"South Khorasan Province","large":true},{"id":"EGBB","name":"Birmingham Airport","municipality":"Birmingham, West Midlands","iata":"BHX","icao":"EGBB","latitude":52.453899,"longitude":-1.74803,"country":"United Kingdom","region":"England","keywords":"Birmingham International Airport","large":true},{"id":"KBHM","name":"Birmingham-Shuttlesworth International Airport","municipality":"Birmingham","iata":"BHM","icao":"KBHM","latitude":33.562877,"longitude":-86.750712,"country":"United States","region":"Alabama","large":true},{"id":"DAUB","name":"Biskra - Mohamed Khider Airport","municipality":"Biskra","iata":"BSK","icao":"DAUB","latitude":34.79318,"longitude":5.738899,"country":"Algeria","region":"Biskra Province","large":true},{"id":"GOBD","name":"Blaise Diagne International Airport","municipality":"Dakar","iata":"DSS","icao":"GOBD","latitude":14.670878,"longitude":-17.072829,"country":"Senegal","region":"Dakar Region","keywords":"diass airport","large":true},{"id":"DFOO","name":"Bobo Dioulasso Airport","municipality":"Bobo Dioulasso","iata":"BOY","icao":"DFOO","latitude":11.1601,"longitude":-4.33097,"country":"Burkina Faso","region":"Houet Province","large":true},{"id":"EDNY","name":"Bodensee Airport Friedrichshafen","municipality":"Friedrichshafen","iata":"FDH","icao":"EDNY","latitude":47.671299,"longitude":9.51149,"country":"Germany","region":"Baden-Württemberg","keywords":"Bodensee Airport Friedrichshafen","large":true},{"id":"ENBO","name":"Bodø Airport","municipality":"Bodø","iata":"BOO","icao":"ENBO","latitude":67.269203,"longitude":14.3653,"country":"Norway","region":"Nordland","keywords":"Bodø Air Force Base, Bodø Main Air Station","large":true},{"id":"RPSP","name":"Bohol-Panglao International Airport","municipality":"Panglao","iata":"TAG","icao":"RPSP","latitude":9.573045,"longitude":123.770143,"country":"Philippines","region":"Bohol Province","large":true},{"id":"KBOI","name":"Boise Air Terminal/Gowen Field","municipality":"Boise","iata":"BOI","icao":"KBOI","latitude":43.5644,"longitude":-116.223,"country":"United States","region":"Idaho","keywords":"Boise Air Terminal, Gowen Field","large":true},{"id":"UTDT","name":"Bokhtar International Airport","municipality":"Bokhtar","iata":"KQT","icao":"UTDT","latitude":37.866315,"longitude":68.864475,"country":"Tajikistan","region":"Khatlon Region","keywords":"Kurgan-Tube, Qurghonteppa","large":true},{"id":"LIPE","name":"Bologna Guglielmo Marconi Airport","municipality":"Bologna","iata":"BLQ","icao":"LIPE","latitude":44.5354,"longitude":11.2887,"country":"Italy","region":"Emilia-Romagna","keywords":"Guglielmo Marconi Airport, Borgo Panigale Airport","large":true},{"id":"NGTA","name":"Bonriki International Airport","municipality":"South Tarawa","iata":"TRW","icao":"NGTA","latitude":1.38164,"longitude":173.147003,"country":"Kiribati","region":"Gilbert Islands","keywords":"Bonriki, Mullinix, Tarawa","large":true},{"id":"LFBD","name":"Bordeaux–Mérignac Airport","municipality":"Bordeaux","iata":"BOD","icao":"LFBD","latitude":44.82865,"longitude":-0.715356,"country":"France","region":"Nouvelle-Aquitaine","large":true},{"id":"KBOS","name":"Boston Logan International Airport","municipality":"Boston","iata":"BOS","icao":"KBOS","latitude":42.36197,"longitude":-71.0079,"country":"United States","region":"Massachusetts","keywords":"General Edward Lawrence Logan International Airport","large":true},{"id":"KBDL","name":"Bradley International Airport","municipality":"Hartford","iata":"BDL","icao":"KBDL","latitude":41.938555,"longitude":-72.688016,"country":"United States","region":"Connecticut","keywords":"HFD, Hartford","large":true},{"id":"FABL","name":"Bram Fischer International Airport","municipality":"Bloemfontein","iata":"BFN","icao":"FABL","latitude":-29.092699,"longitude":26.302401,"country":"South Africa","region":"Free State","keywords":"AFB Bloemspruit, Bloemspruit","large":true},{"id":"LRBV","name":"Brașov-Ghimbav International Airport","municipality":"Brașov (Ghimbav)","iata":"GHV","icao":"LRBV","latitude":45.70558,"longitude":25.522871,"country":"Romania","region":"Braşov County","keywords":"Aeroportul Internațional Brașov-Ghimbav","large":true},{"id":"EDDW","name":"Bremen Airport","municipality":"Bremen","iata":"BRE","icao":"EDDW","latitude":53.046786,"longitude":8.78932,"country":"Germany","region":"Bremen","large":true},{"id":"LFRB","name":"Brest Bretagne airport","municipality":"Brest","iata":"BES","icao":"LFRB","latitude":48.447899,"longitude":-4.41854,"country":"France","region":"Brittany","large":true},{"id":"UMBB","name":"Brest International Airport","municipality":"Brest","iata":"BQT","icao":"UMBB","latitude":52.108138,"longitude":23.89676,"country":"Belarus","region":"Brest Region","keywords":"Аэропорт Брест","large":true},{"id":"LIBR","name":"Brindisi Airport","municipality":"Brindisi","iata":"BDS","icao":"LIBR","latitude":40.6576,"longitude":17.947001,"country":"Italy","region":"Apulia","keywords":"Brindisi Papola Casale Airport, Brindisi Salento Airport, Brindisi Casale Antonio Papolo Airport, Salento Airport","large":true},{"id":"YBBN","name":"Brisbane International Airport","municipality":"Brisbane","iata":"BNE","icao":"YBBN","latitude":-27.384199142456055,"longitude":153.11700439453125,"country":"Australia","region":"Queensland","large":true},{"id":"EGGD","name":"Bristol Airport","municipality":"Bristol","iata":"BRS","icao":"EGGD","latitude":51.382326,"longitude":-2.716453,"country":"United Kingdom","region":"England","keywords":"Lulsgate Bottom","large":true},{"id":"YBRM","name":"Broome International Airport","municipality":"Broome","iata":"BME","icao":"YBRM","latitude":-17.949194,"longitude":122.2283,"country":"Australia","region":"Western Australia","large":true},{"id":"WBSB","name":"Brunei International Airport","municipality":"Bandar Seri Begawan","iata":"BWN","icao":"WBSB","latitude":4.9442,"longitude":114.928001,"country":"Brunei","region":"Brunei-Muara District","large":true},{"id":"EBBR","name":"Brussels Airport","municipality":"Zaventem","iata":"BRU","icao":"EBBR","latitude":50.901402,"longitude":4.48444,"country":"Belgium","region":"Flemish Brabant Province","keywords":"Brussels National, Zaventem, EBMB","large":true},{"id":"EBCI","name":"Brussels South Charleroi Airport","municipality":"Charleroi","iata":"CRL","icao":"EBCI","latitude":50.461963,"longitude":4.459562,"country":"Belgium","region":"Hainaut Province","keywords":"Gosselies Airport","large":true},{"id":"LRBS","name":"Bucharest Băneasa Aurel Vlaicu International Airport","municipality":"Bucharest","iata":"BBU","icao":"LRBS","latitude":44.503133,"longitude":26.102944,"country":"Romania","region":"Bucharest (municipality)","keywords":"BUH, Băneasa, Aurel Vlaicu International, Bucharest City","large":true},{"id":"LROP","name":"Bucharest Henri Coandă International Airport","municipality":"Otopeni","iata":"OTP","icao":"LROP","latitude":44.571792,"longitude":26.103285,"country":"Romania","region":"Ilfov County","keywords":"BUH, Otopeni Airport, RoAF 90th Airlift Base","large":true},{"id":"LHBP","name":"Budapest Liszt Ferenc International Airport","municipality":"Budapest","iata":"BUD","icao":"LHBP","latitude":47.43018,"longitude":19.262393,"country":"Hungary","region":"Budapest (capital city)","keywords":"Ferihegyi nemzetközi repülőtér, Budapest Liszt Ferenc international Airport","large":true},{"id":"KBUF","name":"Buffalo Niagara International Airport","municipality":"Buffalo","iata":"BUF","icao":"KBUF","latitude":42.940498,"longitude":-78.732201,"country":"United States","region":"New York","large":true},{"id":"HBBA","name":"Bujumbura Melchior Ndadaye International Airport","municipality":"Bujumbura","iata":"BJM","icao":"HBBA","latitude":-3.32402,"longitude":29.318501,"country":"Burundi","region":"Bujumbura Mairie Province","large":true},{"id":"UTSB","name":"Bukhara International Airport","municipality":"Bukhara","iata":"BHK","icao":"UZSB","latitude":39.775319,"longitude":64.482279,"country":"Uzbekistan","region":"Bukhara Region","keywords":"UTSB, Buhara, Buxoro","large":true},{"id":"LBBG","name":"Burgas Airport","municipality":"Burgas","iata":"BOJ","icao":"LBBG","latitude":42.569917,"longitude":27.515173,"country":"Bulgaria","region":"Burgas Province","keywords":"Bourgas","large":true},{"id":"LIEE","name":"Cagliari Elmas Airport","municipality":"Cagliari","iata":"CAG","icao":"LIEE","latitude":39.251499,"longitude":9.05428,"country":"Italy","region":"Sardinia","keywords":"Cagliari Airport,Elmas","large":true},{"id":"YBCS","name":"Cairns International Airport","municipality":"Cairns","iata":"CNS","icao":"YBCS","latitude":-16.878921,"longitude":145.74948,"country":"Australia","region":"Queensland","large":true},{"id":"HECA","name":"Cairo International Airport","municipality":"Cairo","iata":"CAI","icao":"HECA","latitude":30.111534,"longitude":31.396694,"country":"Egypt","region":"Cairo Governorate","large":true},{"id":"CYYC","name":"Calgary International Airport","municipality":"Calgary","iata":"YYC","icao":"CYYC","latitude":51.118822,"longitude":-114.009933,"country":"Canada","region":"Alberta","keywords":"McCall Field","large":true},{"id":"VOCL","name":"Calicut International Airport","municipality":"Calicut","iata":"CCJ","icao":"VOCL","latitude":11.135996,"longitude":75.955152,"country":"India","region":"Kerala","large":true},{"id":"VVCR","name":"Cam Ranh International Airport / Cam Ranh Air Base","municipality":"Nha Trang/nha Trang aiurportCam Ranh","iata":"CXR","icao":"VVCR","latitude":11.9982,"longitude":109.219002,"country":"Vietnam","region":"South Central Coast Region","large":true},{"id":"VVCT","name":"Can Tho International Airport","municipality":"Can Tho","iata":"VCA","icao":"VVCT","latitude":10.083397,"longitude":105.709371,"country":"Vietnam","region":"Southwest Region","keywords":"Binh Thuy Air Base, Trà Nóc Airport","large":true},{"id":"MMUN","name":"Cancún International Airport","municipality":"Cancún","iata":"CUN","icao":"MMUN","latitude":21.040817,"longitude":-86.87347,"country":"Mexico","region":"Quintana Roo","large":true},{"id":"SPCL","name":"Cap FAP David Abenzur Rengifo International Airport","municipality":"Pucallpa","iata":"PCL","icao":"SPCL","latitude":-8.378064,"longitude":-74.574495,"country":"Peru","region":"Ucayali Region","large":true},{"id":"MTCH","name":"Cap Haitien International Airport","municipality":"Cap Haitien","iata":"CAP","icao":"MTCH","latitude":19.725547,"longitude":-72.20071,"country":"Haiti","region":"Nord Department","large":true},{"id":"FACT","name":"Cape Town International Airport","municipality":"Cape Town","iata":"CPT","icao":"FACT","latitude":-33.97403,"longitude":18.604333,"country":"South Africa","region":"Western Cape","keywords":"Kaapstad Internasionale Lughawe, CTIA, DF Malan Airport","large":true},{"id":"SPRU","name":"Capitán FAP Carlos Martínez de Pinillos International Airport","municipality":"Trujillo","iata":"TRU","icao":"SPRU","latitude":-8.082382,"longitude":-79.108821,"country":"Peru","region":"La Libertad Region","large":true},{"id":"SPHI","name":"Capitán FAP José A. Quiñones González International Airport","municipality":"Chiclayo","iata":"CIX","icao":"SPHI","latitude":-6.789223,"longitude":-79.828254,"country":"Peru","region":"Lambayeque Region","large":true},{"id":"EGFF","name":"Cardiff International Airport","municipality":"Cardiff","iata":"CWL","icao":"EGFF","latitude":51.396702,"longitude":-3.34333,"country":"United Kingdom","region":"Wales","keywords":"Caerdydd, Cardiff International Airport, Maes Awyr Caerdydd, Rhoose, Y Rhws","large":true},{"id":"SETN","name":"Carlos Concha Torres International Airport","municipality":"Tachina","iata":"ESM","icao":"SETN","latitude":0.978519,"longitude":-79.626602,"country":"Ecuador","region":"Esmeraldas Province","keywords":"General Rivadeneira","large":true},{"id":"MMVA","name":"Carlos Rovirosa Pérez International Airport","municipality":"Villahermosa","iata":"VSA","icao":"MMVA","latitude":17.994283,"longitude":-92.818199,"country":"Mexico","region":"Tabasco","keywords":"Villahermosa International Airport","large":true},{"id":"SUMU","name":"Carrasco General Cesáreo L. Berisso International Airport","municipality":"Ciudad de la Costa","iata":"MVD","icao":"SUMU","latitude":-34.835647,"longitude":-56.026497,"country":"Uruguay","region":"Canelones Department","keywords":"Montevideo","large":true},{"id":"SCIE","name":"Carriel Sur International Airport","municipality":"Concepcion","iata":"CCP","icao":"SCIE","latitude":-36.77235,"longitude":-73.062828,"country":"Chile","region":"Bío-Bío Region","large":true},{"id":"MDLR","name":"Casa De Campo International Airport","municipality":"La Romana","iata":"LRM","icao":"MDLR","latitude":18.452222,"longitude":-68.911111,"country":"Dominican Republic","region":"La Romana Province","large":true},{"id":"PLCH","name":"Cassidy International Airport","municipality":"Kiritimati","iata":"CXI","icao":"PLCH","latitude":1.986278,"longitude":-157.350011,"country":"Kiribati","region":"Line Islands","keywords":"Christmas Island, Banana","large":true},{"id":"VVCI","name":"Cat Bi International Airport","municipality":"Haiphong (Hai An)","iata":"HPH","icao":"VVCI","latitude":20.817428,"longitude":106.724315,"country":"Vietnam","region":"Red River Delta Region","keywords":"Catbi Airport","large":true},{"id":"LICC","name":"Catania-Fontanarossa Airport","municipality":"Catania","iata":"CTA","icao":"LICC","latitude":37.466801,"longitude":15.0664,"country":"Italy","region":"Sicily","keywords":"Lanza Di Trabie, Catania-Fontanarossa Vincenzo Bellini","large":true},{"id":"SBFI","name":"Cataratas International Airport","municipality":"Foz do Iguaçu","iata":"IGU","icao":"SBFI","latitude":-25.594167,"longitude":-54.489444,"country":"Brazil","region":"Paraná","large":true},{"id":"SOCA","name":"Cayenne – Félix Eboué Airport","municipality":"Matoury","iata":"CAY","icao":"SOCA","latitude":4.819964,"longitude":-52.361326,"country":"French Guiana","region":"Cayenne","keywords":"Cayenne-Rochambeau, Matoury","large":true},{"id":"GCRR","name":"César Manrique-Lanzarote Airport","municipality":"San Bartolomé","iata":"ACE","icao":"GCRR","latitude":28.945499,"longitude":-13.6052,"country":"Spain","region":"Canary Islands","keywords":"Arrecife Airport","large":true},{"id":"GVSV","name":"Cesaria Evora International Airport","municipality":"São Pedro","iata":"VXE","icao":"GVSV","latitude":16.833363,"longitude":-25.055308,"country":"Cape Verde","region":"Barlavento Islands","keywords":"São Vicente Island","large":true},{"id":"LKCS","name":"České Budějovice South Bohemian Airport","municipality":"České Budějovice","iata":"JCL","icao":"LKCS","latitude":48.948171,"longitude":14.42832,"country":"Czech Republic","region":"South Bohemian Region","keywords":"Jihočeské letiště České Budějovice","large":true},{"id":"ZYCC","name":"Changchun Longjia International Airport","municipality":"Changchun","iata":"CGQ","icao":"ZYCC","latitude":43.996201,"longitude":125.684998,"country":"China","region":"Jilin Province","large":true},{"id":"ZGHA","name":"Changsha Huanghua International Airport","municipality":"Changsha (Changsha)","iata":"CSX","icao":"ZGHA","latitude":28.189199,"longitude":113.220001,"country":"China","region":"Hunan Province","keywords":"长沙黄花国际机场","large":true},{"id":"LGSA","name":"Chania International Airport","municipality":"Souda","iata":"CHQ","icao":"LGSA","latitude":35.531207,"longitude":24.150673,"country":"Greece","region":"Crete","large":true},{"id":"LFPG","name":"Charles de Gaulle International Airport","municipality":"Paris (Roissy-en-France, Val-d'Oise)","iata":"CDG","icao":"LFPG","latitude":49.00896,"longitude":2.554117,"country":"France","region":"Île-de-France","keywords":"PAR, Aéroport Roissy-Charles de Gaulle, Roissy Airport","large":true},{"id":"KCHS","name":"Charleston International Airport","municipality":"Charleston","iata":"CHS","icao":"KCHS","latitude":32.896159,"longitude":-80.038151,"country":"United States","region":"South Carolina","keywords":"Charleston Air Force Base","large":true},{"id":"KCLT","name":"Charlotte Douglas International Airport","municipality":"Charlotte","iata":"CLT","icao":"KCLT","latitude":35.2140007019043,"longitude":-80.94309997558594,"country":"United States","region":"North Carolina","large":true},{"id":"VILK","name":"Chaudhary Charan Singh International Airport","municipality":"Lucknow","iata":"LKO","icao":"VILK","latitude":26.760599,"longitude":80.889297,"country":"India","region":"Uttar Pradesh","keywords":"Amausi International Airport","large":true},{"id":"SYCJ","name":"Cheddi Jagan International Airport","municipality":"Georgetown","iata":"GEO","icao":"SYCJ","latitude":6.49855,"longitude":-58.254101,"country":"Guyana","region":"Demerara-Mahaica","keywords":"SYGT, Atkinson AFB. Timehri Intl","large":true},{"id":"ZUUU","name":"Chengdu Shuangliu International Airport","municipality":"Chengdu (Shuangliu)","iata":"CTU","icao":"ZUUU","latitude":30.558257,"longitude":103.945966,"country":"China","region":"Sichuan Province","keywords":"成都双流国际机场","large":true},{"id":"ZUTF","name":"Chengdu Tianfu International Airport","municipality":"Chengdu (Jianyang)","iata":"TFU","icao":"ZUTF","latitude":30.31252,"longitude":104.441284,"country":"China","region":"Sichuan Province","large":true},{"id":"VOMM","name":"Chennai International Airport","municipality":"Chennai","iata":"MAA","icao":"VOMM","latitude":12.990005,"longitude":80.169296,"country":"India","region":"Tamil Nadu","keywords":"Madras","large":true},{"id":"RKTU","name":"Cheongju International Airport/Cheongju Air Base (K-59/G-513)","municipality":"Cheongju","iata":"CJJ","icao":"RKTU","latitude":36.71556,"longitude":127.500289,"country":"South Korea","region":"Chungcheongbuk-do (North Chungcheong Province)","large":true},{"id":"VABB","name":"Chhatrapati Shivaji Maharaj International Airport","municipality":"Mumbai","iata":"BOM","icao":"VABB","latitude":19.088699,"longitude":72.867897,"country":"India","region":"Maharashtra","keywords":"Bombay, Sahar International Airport","large":true},{"id":"VTCC","name":"Chiang Mai International Airport","municipality":"Chiang Mai","iata":"CNX","icao":"VTCC","latitude":18.766799926799997,"longitude":98.962600708,"country":"Thailand","region":"Chiang Mai Province","large":true},{"id":"KMDW","name":"Chicago Midway International Airport","municipality":"Chicago","iata":"MDW","icao":"KMDW","latitude":41.785999,"longitude":-87.752403,"country":"United States","region":"Illinois","keywords":"CHI","large":true},{"id":"KORD","name":"Chicago O'Hare International Airport","municipality":"Chicago","iata":"ORD","icao":"KORD","latitude":41.9786,"longitude":-87.9048,"country":"United States","region":"Illinois","keywords":"CHI, Orchard Place","large":true},{"id":"FAPE","name":"Chief Dawid Stuurman International Airport","municipality":"Gqeberha (Port Elizabeth)","iata":"PLZ","icao":"FAPE","latitude":-33.989715,"longitude":25.617353,"country":"South Africa","region":"Eastern Cape","keywords":"H. F. Verwoerd Airport, Port Elizabeth International Airport, Walmer Airport","large":true},{"id":"FWCL","name":"Chileka International Airport","municipality":"Blantyre","iata":"BLZ","icao":"FWCL","latitude":-15.677189,"longitude":34.972319,"country":"Malawi","region":"Blantyre District","large":true},{"id":"LUKK","name":"Chişinău International Airport","municipality":"Chişinău","iata":"RMO","icao":"LUKK","latitude":46.92774,"longitude":28.931704,"country":"Moldova","region":"Chişinău (city)","keywords":"KIV","large":true},{"id":"UIAA","name":"Chita-Kadala International Airport","municipality":"Chita","iata":"HTA","icao":"UIAA","latitude":52.024841,"longitude":113.305839,"country":"Russia","region":"Zabaykalsky Krai","large":true},{"id":"DAOI","name":"Chlef Aboubakr Belkaid International Airport","municipality":"Chlef","iata":"CFK","icao":"DAOI","latitude":36.216614,"longitude":1.341114,"country":"Algeria","region":"Chlef Province","keywords":"Ech Cheliff Airport","large":true},{"id":"ZUCK","name":"Chongqing Jiangbei International Airport","municipality":"Chongqing","iata":"CKG","icao":"ZUCK","latitude":29.712254,"longitude":106.651895,"country":"China","region":"Chongqing Municipality","large":true},{"id":"NZCH","name":"Christchurch International Airport","municipality":"Christchurch","iata":"CHC","icao":"NZCH","latitude":-43.489029,"longitude":172.532065,"country":"New Zealand","region":"Canterbury Region","large":true},{"id":"RJGG","name":"Chubu Centrair International Airport","municipality":"Tokoname","iata":"NGO","icao":"RJGG","latitude":34.858398,"longitude":136.804993,"country":"Japan","region":"Aichi Prefecture","large":true},{"id":"PTKK","name":"Chuuk International Airport","municipality":"Weno Island","iata":"TKK","icao":"PTKK","latitude":7.46187,"longitude":151.843002,"country":"Micronesia","region":"Chuuk State","keywords":"Erhart Aten International Airport","large":true},{"id":"LIRA","name":"Ciampino–G. B. Pastine International Airport","municipality":"Rome","iata":"CIA","icao":"LIRA","latitude":41.798769,"longitude":12.595331,"country":"Italy","region":"Lazio","keywords":"ROM, Giovan Battista Pastine Airport","large":true},{"id":"MDST","name":"Cibao International Airport","municipality":"Santiago","iata":"STI","icao":"MDST","latitude":19.40406,"longitude":-70.604431,"country":"Dominican Republic","region":"Santiago de los Caballeros Province","large":true},{"id":"KCVG","name":"Cincinnati Northern Kentucky International Airport","municipality":"Cincinnati / Covington","iata":"CVG","icao":"KCVG","latitude":39.048801,"longitude":-84.667801,"country":"United States","region":"Kentucky","large":true},{"id":"KCOS","name":"City of Colorado Springs Municipal Airport","municipality":"Colorado Springs","iata":"COS","icao":"KCOS","latitude":38.805801,"longitude":-104.700996,"country":"United States","region":"Colorado","keywords":"Peterson SFB, Colorado Springs Airport","large":true},{"id":"RPLC","name":"Clark International Airport / Clark Air Base","municipality":"Mabalacat","iata":"CRK","icao":"RPLC","latitude":15.186,"longitude":120.559998,"country":"Philippines","region":"Pampanga Province","keywords":"Diosdado Macapagal International Airport, Paliparang Pandaigdig ng Diosdado Macapagal, Pangyatung Sulapawan ning Clark, Paliparang Pandaigdig ng Clark","large":true},{"id":"LFLC","name":"Clermont-Ferrand Auvergne airport","municipality":"Clermont-Ferrand","iata":"CFE","icao":"LFLC","latitude":45.786701,"longitude":3.16917,"country":"France","region":"Auvergne-Rhône-Alpes","large":true},{"id":"KCLE","name":"Cleveland Hopkins International Airport","municipality":"Cleveland","iata":"CLE","icao":"KCLE","latitude":41.411701,"longitude":-81.8498,"country":"United States","region":"Ohio","large":true},{"id":"VOCI","name":"Cochin International Airport","municipality":"Kochi","iata":"COK","icao":"VOCI","latitude":10.151047,"longitude":76.400838,"country":"India","region":"Kerala","keywords":"Cochin","large":true},{"id":"YPCC","name":"Cocos (Keeling) Islands Airport","municipality":"West Island","iata":"CCK","icao":"YPCC","latitude":-12.192218,"longitude":96.834103,"country":"Cocos (Keeling) Islands","region":"(unassigned)","large":true},{"id":"VOCB","name":"Coimbatore International Airport","municipality":"Coimbatore","iata":"CJB","icao":"VOCB","latitude":11.03,"longitude":77.043404,"country":"India","region":"Tamil Nadu","large":true},{"id":"EDDK","name":"Cologne Bonn Airport","municipality":"Köln (Cologne)","iata":"CGN","icao":"EDDK","latitude":50.865898,"longitude":7.14274,"country":"Germany","region":"North Rhine-Westphalia","keywords":"Köln","large":true},{"id":"VCCC","name":"Colombo Ratmalana International Airport","municipality":"Colombo","iata":"RML","icao":"VCCC","latitude":6.821638,"longitude":79.885859,"country":"Sri Lanka","region":"Western Province","large":true},{"id":"SCEL","name":"Comodoro Arturo Merino Benítez International Airport","municipality":"Santiago","iata":"SCL","icao":"SCEL","latitude":-33.393001556396484,"longitude":-70.78579711914062,"country":"Chile","region":"Santiago Metropolitan Region","large":true},{"id":"SBSP","name":"Congonhas–Deputado Freitas Nobre Airport","municipality":"São Paulo","iata":"CGH","icao":"SBSP","latitude":-23.627657,"longitude":-46.654601,"country":"Brazil","region":"São Paulo","large":true},{"id":"EKCH","name":"Copenhagen Kastrup Airport","municipality":"Copenhagen","iata":"CPH","icao":"EKCH","latitude":55.617900848389,"longitude":12.656000137329,"country":"Denmark","region":"Capital Region","keywords":"København, Malmö","large":true},{"id":"EPWR","name":"Copernicus Wrocław Airport","municipality":"Wrocław","iata":"WRO","icao":"EPWR","latitude":51.103719,"longitude":16.882096,"country":"Poland","region":"Lower Silesian Voivodeship","keywords":"Strachowice, Breslau, Wroclaw","large":true},{"id":"LGKR","name":"Corfu Ioannis Kapodistrias International Airport","municipality":"Kerkyra (Corfu)","iata":"CFU","icao":"LGKR","latitude":39.60145,"longitude":19.912179,"country":"Greece","region":"Ionian Islands","keywords":"Corfu","large":true},{"id":"OCS","name":"Corisco International Airport","municipality":"Corisco Island","iata":"OCS","icao":"FGCO","latitude":0.910937,"longitude":9.33027,"country":"Equatorial Guinea","region":"Litoral Province","large":true},{"id":"EICK","name":"Cork International Airport","municipality":"Cork","iata":"ORK","icao":"EICK","latitude":51.841301,"longitude":-8.49111,"country":"Ireland","region":"County Cork","keywords":"Aerfort Chorcaí","large":true},{"id":"SPQT","name":"Coronel FAP Francisco Secada Vignetta International Airport","municipality":"Iquitos","iata":"IQT","icao":"SPQT","latitude":-3.78474,"longitude":-73.3088,"country":"Peru","region":"Loreto Region","large":true},{"id":"DBBB","name":"Cotonou Cadjehoun International Airport","municipality":"Cotonou","iata":"COO","icao":"DBBB","latitude":6.35723,"longitude":2.38435,"country":"Benin","region":"Atlantique Department","large":true},{"id":"MMCZ","name":"Cozumel International Airport","municipality":"Cozumel","iata":"CZM","icao":"MMCZ","latitude":20.514922,"longitude":-86.928538,"country":"Mexico","region":"Quintana Roo","large":true},{"id":"LRCV","name":"Craiova International Airport","municipality":"Craiova","iata":"CRA","icao":"LRCV","latitude":44.3181,"longitude":23.888599,"country":"Romania","region":"Dolj County","large":true},{"id":"LPMA","name":"Cristiano Ronaldo International Airport","municipality":"Funchal","iata":"FNC","icao":"LPMA","latitude":32.697812,"longitude":-16.774613,"country":"Portugal","region":"Autonomous Region of Madeira","keywords":"Madeira, Funchal","large":true},{"id":"LTDB","name":"Çukurova International Airport","municipality":"Tarsus","iata":"COV","icao":"LTDB","latitude":36.891478,"longitude":35.071235,"country":"Turkey","region":"Mersin Province","keywords":"Çukurova International Airport","large":true},{"id":"SBCT","name":"Curitiba-Afonso Pena International Airport","municipality":"Curitiba","iata":"CWB","icao":"SBCT","latitude":-25.5285,"longitude":-49.1758,"country":"Brazil","region":"Paraná","large":true},{"id":"TIST","name":"Cyril E. King Airport","municipality":"Charlotte Amalie","iata":"STT","icao":"TIST","latitude":18.337091,"longitude":-64.977251,"country":"U.S. Virgin Islands","region":"Saint Thomas","keywords":"Harry S. Truman Airport","large":true},{"id":"VVDN","name":"Da Nang International Airport","municipality":"Da Nang","iata":"DAD","icao":"VVDN","latitude":16.0439,"longitude":108.198997,"country":"Vietnam","region":"South Central Coast Region","keywords":"Danang, Cảng Hàng không Quốc tế Đà Nẵng","large":true},{"id":"RKTN","name":"Daegu International Airport","municipality":"Daegu","iata":"TAE","icao":"RKTN","latitude":35.894394,"longitude":128.656989,"country":"South Korea","region":"Daegu-gwangyeoksi (Daegu Metropolitan City)","large":true},{"id":"GMMH","name":"Dakhla Airport","municipality":"Dakhla","iata":"VIL","icao":"GMMH","latitude":23.7183,"longitude":-15.932,"country":"Western Sahara (disputed territory)","region":"(unassigned)","keywords":"GSVO, Villa Cisneros, Dajla, Oued Ed-Dahab","large":true},{"id":"LTBS","name":"Dalaman International Airport","municipality":"Dalaman","iata":"DLM","icao":"LTBS","latitude":36.7131,"longitude":28.7925,"country":"Turkey","region":"Muğla Province","large":true},{"id":"ZYTL","name":"Dalian Zhoushuizi International Airport","municipality":"Dalian (Ganjingzi)","iata":"DLC","icao":"ZYTL","latitude":38.965719,"longitude":121.538477,"country":"China","region":"Liaoning Province","keywords":"Dalian Air Base","large":true},{"id":"KDFW","name":"Dallas Fort Worth International Airport","municipality":"Dallas-Fort Worth","iata":"DFW","icao":"KDFW","latitude":32.896801,"longitude":-97.038002,"country":"United States","region":"Texas","keywords":"QDF","large":true},{"id":"KDAL","name":"Dallas Love Field","municipality":"Dallas","iata":"DAL","icao":"KDAL","latitude":32.844776,"longitude":-96.847653,"country":"United States","region":"Texas","keywords":"QDF","large":true},{"id":"OSDI","name":"Damascus International Airport","municipality":"Damascus","iata":"DAM","icao":"OSDI","latitude":33.4114990234375,"longitude":36.51559829711914,"country":"Syria","region":"Damascus Governorate","keywords":"مطار دمشق الدولي","large":true},{"id":"PHNL","name":"Daniel K. Inouye International Airport","municipality":"Honolulu, Oahu","iata":"HNL","icao":"PHNL","latitude":21.318387,"longitude":-157.92567,"country":"United States","region":"Hawaii","keywords":"Hickam Air Force Base, HIK, PHIK, KHNL, Honolulu International","large":true},{"id":"MRLB","name":"Daniel Oduber Quirós International Airport","municipality":"Liberia","iata":"LIR","icao":"MRLB","latitude":10.5933,"longitude":-85.544403,"country":"Costa Rica","region":"Guanacaste Province","keywords":"Guanacaste, Liberia International","large":true},{"id":"KH-0001","name":"Dara Sakor International Airport","municipality":"Ta Noun","iata":"DSY","icao":"VDDS","latitude":10.914244,"longitude":103.226652,"country":"Cambodia","region":"Koh Kong province","keywords":"Krong Khemara Phoumin, អាកាសយានដ្ឋានអន្តរជាតិតារាសាគរ","large":true},{"id":"YPDN","name":"Darwin International Airport / RAAF Darwin","municipality":"Darwin","iata":"DRW","icao":"YPDN","latitude":-12.41497,"longitude":130.88185,"country":"Australia","region":"Northern Territory","large":true},{"id":"UTAT","name":"Dashoguz International Airport","municipality":"Daşoguz","iata":"TAZ","icao":"UTAT","latitude":41.759853,"longitude":59.836149,"country":"Turkmenistan","region":"Daşoguz Region","keywords":"Tashauz Airport, Dashkhovuz, Dashhowuz, Daşoguz, Dasoguz, Дашогуз","large":true},{"id":"ZBDT","name":"Datong Yungang International Airport","municipality":"Datong","iata":"DAT","icao":"ZBDT","latitude":40.06139,"longitude":113.480509,"country":"China","region":"Shanxi Province","large":true},{"id":"UGKO","name":"David the Builder Kutaisi International Airport","municipality":"Kopitnari","iata":"KUT","icao":"UGKO","latitude":42.177448,"longitude":42.485353,"country":"Georgia","region":"Imereti","keywords":"Kopitnari","large":true},{"id":"LHDC","name":"Debrecen International Airport","municipality":"Debrecen","iata":"DEB","icao":"LHDC","latitude":47.489469,"longitude":21.616278,"country":"Hungary","region":"Hajdu-Bihar County","keywords":"Debreceni nemzetközi repülőtér","large":true},{"id":"SVMG","name":"Del Caribe Santiago Mariño International Airport","municipality":"Isla Margarita","iata":"PMV","icao":"SVMG","latitude":10.912603,"longitude":-63.966599,"country":"Venezuela","region":"Nueva Esparta State","large":true},{"id":"WADD","name":"Denpasar I Gusti Ngurah Rai International Airport","municipality":"Kuta, Badung","iata":"DPS","icao":"WADD","latitude":-8.748409,"longitude":115.167123,"country":"Indonesia","region":"Bali","keywords":"WRRR, Bali, Denpasar International Airport, Denpasar","large":true},{"id":"KDEN","name":"Denver International Airport","municipality":"Denver","iata":"DEN","icao":"KDEN","latitude":39.860027,"longitude":-104.673792,"country":"United States","region":"Colorado","keywords":"DVX, KVDX","large":true},{"id":"SBSV","name":"Deputado Luiz Eduardo Magalhães International Airport","municipality":"Salvador","iata":"SSA","icao":"SBSV","latitude":-12.908611,"longitude":-38.322498,"country":"Brazil","region":"Bahia","keywords":"Dois de Julho","large":true},{"id":"KDSM","name":"Des Moines International Airport","municipality":"Des Moines","iata":"DSM","icao":"KDSM","latitude":41.534027,"longitude":-93.656719,"country":"United States","region":"Iowa","large":true},{"id":"KDTW","name":"Detroit Metropolitan Wayne County Airport","municipality":"Detroit","iata":"DTW","icao":"KDTW","latitude":42.21377,"longitude":-83.353786,"country":"United States","region":"Michigan","keywords":"DTT, Detroit Metro Airport","large":true},{"id":"VAID","name":"Devi Ahilya Bai Holkar International Airport","municipality":"Indore","iata":"IDR","icao":"VAID","latitude":22.721404,"longitude":75.80051,"country":"India","region":"Madhya Pradesh","large":true},{"id":"SCDA","name":"Diego Aracena International Airport","municipality":"Iquique","iata":"IQQ","icao":"SCDA","latitude":-20.536273,"longitude":-70.181373,"country":"Chile","region":"Tarapacá Region","large":true},{"id":"DRRN","name":"Diori Hamani International Airport","municipality":"Niamey","iata":"NIM","icao":"DRRN","latitude":13.4815,"longitude":2.18361,"country":"Niger","region":"Niamey Capital District","large":true},{"id":"DTTJ","name":"Djerba Zarzis International Airport","municipality":"Mellita","iata":"DJE","icao":"DTTJ","latitude":33.873719,"longitude":10.7773,"country":"Tunisia","region":"Medenine Governorate","large":true},{"id":"HDAM","name":"Djibouti-Ambouli Airport","municipality":"Djibouti City","iata":"JIB","icao":"HDAM","latitude":11.5473,"longitude":43.1595,"country":"Djibouti","region":"Djibouti Region","keywords":"Camp Lemonnier","large":true},{"id":"OTBD","name":"Doha International Airport","municipality":"Doha","iata":"DIA","icao":"OTBD","latitude":25.259431,"longitude":51.565528,"country":"Qatar","region":"Ad-Dawhah Municipality","keywords":"مطار الدوحة الدولى","large":true},{"id":"UUDD","name":"Domodedovo International Airport","municipality":"Moscow","iata":"DME","icao":"UUDD","latitude":55.408798,"longitude":37.9063,"country":"Russia","region":"Moscow Oblast","keywords":"MOW, Аэропорт Домоде́дово","large":true},{"id":"VTBD","name":"Don Mueang International Airport","municipality":"Bangkok","iata":"DMK","icao":"VTBD","latitude":13.9126,"longitude":100.607002,"country":"Thailand","region":"Bangkok (special administrative area)","keywords":"Old Bangkok International Airport, Don Muang Royal Thai Air Force Base","large":true},{"id":"WAJJ","name":"Dortheys Hiyo Eluay International Airport","municipality":"Sentani","iata":"DJJ","icao":"WAJJ","latitude":-2.579627,"longitude":140.519857,"country":"Indonesia","region":"Papua","keywords":"Bandar Udara Internasional Dortheys Hiyo Eluay, Sentani International Airport, Hollandia, Jayapura","large":true},{"id":"EDLW","name":"Dortmund Airport","municipality":"Dortmund","iata":"DTM","icao":"EDLW","latitude":51.518299,"longitude":7.61224,"country":"Germany","region":"North Rhine-Westphalia","large":true},{"id":"FKKD","name":"Douala International Airport","municipality":"Douala","iata":"DLA","icao":"FKKD","latitude":4.00608,"longitude":9.71948,"country":"Cameroon","region":"Littoral Region","large":true},{"id":"FNBJ","name":"Dr. Antonio Agostinho Neto International Airport","municipality":"Luanda (Ícolo e Bengo)","iata":"NBJ","icao":"FNBJ","latitude":-9.050734,"longitude":13.499078,"country":"Angola","region":"Luanda Province","keywords":"Novo Aeroporto Internacional de Luanda","large":true},{"id":"VANP","name":"Dr. Babasaheb Ambedkar International Airport","municipality":"Nagpur","iata":"NAG","icao":"VANP","latitude":21.092199,"longitude":79.047203,"country":"India","region":"Maharashtra","keywords":"Sonegaon Airport, Sonegaon Air Force Station","large":true},{"id":"EDDC","name":"Dresden Airport","municipality":"Dresden","iata":"DRS","icao":"EDDC","latitude":51.134123,"longitude":13.767831,"country":"Germany","region":"Saxony","large":true},{"id":"OMDB","name":"Dubai International Airport","municipality":"Dubai","iata":"DXB","icao":"OMDB","latitude":25.24979,"longitude":55.370992,"country":"United Arab Emirates","region":"Dubai Emirate","keywords":"مطار دبي الدولي‎","large":true},{"id":"EIDW","name":"Dublin Airport","municipality":"Dublin","iata":"DUB","icao":"EIDW","latitude":53.428713,"longitude":-6.262121,"country":"Ireland","region":"County Dublin","keywords":"Aerfort Bhaile Átha Cliath","large":true},{"id":"LDDU","name":"Dubrovnik Ruđer Bošković Airport","municipality":"Dubrovnik","iata":"DBV","icao":"LDDU","latitude":42.562247,"longitude":18.265543,"country":"Croatia","region":"Dubrovnik-Neretva County","keywords":"Močići Airport, Zračna luka Ruđer Bošković Dubrovnik","large":true},{"id":"ZLDH","name":"Dunhuang Mogao International Airport","municipality":"Dunhuang","iata":"DNH","icao":"ZLDH","latitude":40.161953,"longitude":94.812827,"country":"China","region":"Gansu Province","large":true},{"id":"OM-0003","name":"Duqm International Airport","municipality":"Duqm","iata":"DQM","icao":"OODQ","latitude":19.501944,"longitude":57.634167,"country":"Oman","region":"Al Wusta Governorate","large":true},{"id":"UTDD","name":"Dushanbe International Airport","municipality":"Dushanbe","iata":"DYU","icao":"UTDD","latitude":38.543746,"longitude":68.822977,"country":"Tajikistan","region":"Dushanbe","large":true},{"id":"EDDL","name":"Düsseldorf Airport","municipality":"Düsseldorf","iata":"DUS","icao":"EDDL","latitude":51.289501,"longitude":6.76678,"country":"Germany","region":"North Rhine-Westphalia","large":true},{"id":"FMCZ","name":"Dzaoudzi Pamandzi International Airport","municipality":"Dzaoudzi","iata":"DZA","icao":"FMCZ","latitude":-12.809319,"longitude":45.281815,"country":"Mayotte","region":"(unassigned)","large":true},{"id":"EGNX","name":"East Midlands Airport","municipality":"Nottingham, Leicestershire","iata":"EMA","icao":"EGNX","latitude":52.8311,"longitude":-1.32806,"country":"United Kingdom","region":"England","keywords":"RAF Castle Donington","large":true},{"id":"EGPH","name":"Edinburgh Airport","municipality":"Edinburgh","iata":"EDI","icao":"EGPH","latitude":55.950145,"longitude":-3.372288,"country":"United Kingdom","region":"Scotland","large":true},{"id":"CYEG","name":"Edmonton International Airport","municipality":"Edmonton","iata":"YEG","icao":"CYEG","latitude":53.3097,"longitude":-113.580002,"country":"Canada","region":"Alberta","large":true},{"id":"SBEG","name":"Eduardo Gomes International Airport","municipality":"Manaus","iata":"MAO","icao":"SBEG","latitude":-3.03861,"longitude":-60.049702,"country":"Brazil","region":"Amazonas","large":true},{"id":"HCMH","name":"Egal International Airport","municipality":"Hargeisa","iata":"HGA","icao":"HCMH","latitude":9.514082,"longitude":44.083469,"country":"Somalia","region":"Maroodi Jeex","keywords":"Madaarka Caalamiga a ee Cigaal, مطار هرجيسا إيغال الدولية‎)","large":true},{"id":"EHEH","name":"Eindhoven Airport","municipality":"Eindhoven","iata":"EIN","icao":"EHEH","latitude":51.4500999451,"longitude":5.37452983856,"country":"Netherlands","region":"Noord-Brabant","keywords":"Welschap Airport","large":true},{"id":"HEAL","name":"El Alamein International Airport","municipality":"El Alamein","iata":"DBB","icao":"HEAL","latitude":30.924324,"longitude":28.46161,"country":"Egypt","region":"Matruh Governorate","keywords":"Al Alamain, Al Alamayn, العلمين‎","large":true},{"id":"SLLP","name":"El Alto International Airport","municipality":"La Paz / El Alto","iata":"LPB","icao":"SLLP","latitude":-16.510272,"longitude":-68.189416,"country":"Bolivia","region":"La Paz Department","large":true},{"id":"HEAR","name":"El Arish International Airport","municipality":"El Arish","iata":"AAC","icao":"HEAR","latitude":31.055324,"longitude":33.827964,"country":"Egypt","region":"North Sinai Governorate","large":true},{"id":"SKBO","name":"El Dorado International Airport","municipality":"Bogota","iata":"BOG","icao":"SKBO","latitude":4.70159,"longitude":-74.1469,"country":"Colombia","region":"Bogotá Capital District","keywords":"Cundinamarca","large":true},{"id":"KELP","name":"El Paso International Airport","municipality":"El Paso","iata":"ELP","icao":"KELP","latitude":31.809908,"longitude":-106.375607,"country":"United States","region":"Texas","large":true},{"id":"MSLP","name":"El Salvador International Airport Saint Óscar Arnulfo Romero y Galdámez","municipality":"San Salvador (San Luis Talpa)","iata":"SAL","icao":"MSLP","latitude":13.44447,"longitude":-89.055784,"country":"El Salvador","region":"La Paz Department","keywords":"Monseñor Óscar Arnulfo Romero International Airport, Comalapa International Airport","large":true},{"id":"SCTE","name":"El Tepual International Airport","municipality":"Puerto Montt","iata":"PMC","icao":"SCTE","latitude":-41.443093,"longitude":-73.094065,"country":"Chile","region":"Los Lagos Region","large":true},{"id":"HKEL","name":"Eldoret International Airport","municipality":"Eldoret","iata":"EDL","icao":"HKEL","latitude":0.404458,"longitude":35.238899,"country":"Kenya","region":"Uasin Gishu County","keywords":"HKED","large":true},{"id":"PHKO","name":"Ellison Onizuka Kona International Airport at Keāhole","municipality":"Kailua-Kona","iata":"KOA","icao":"PHKO","latitude":19.738783,"longitude":-156.045603,"country":"United States","region":"Hawaii","large":true},{"id":"ULMM","name":"Emperor Nicholas II Murmansk Airport","municipality":"Murmansk","iata":"MMK","icao":"ULMM","latitude":68.7817,"longitude":32.750801,"country":"Russia","region":"Murmansk Oblast","keywords":"Аэропо́рт Му́рманска им. Николая II or Аэропорт Мурмаши, Мурманск","large":true},{"id":"HUEN","name":"Entebbe International Airport","municipality":"Entebbe","iata":"EBB","icao":"HUEN","latitude":0.042386,"longitude":32.443501,"country":"Uganda","region":"Central Region","large":true},{"id":"KOMA","name":"Eppley Airfield","municipality":"Omaha","iata":"OMA","icao":"KOMA","latitude":41.3032,"longitude":-95.894096,"country":"United States","region":"Nebraska","large":true},{"id":"ORER","name":"Erbil International Airport","municipality":"Arbil","iata":"EBL","icao":"ORER","latitude":36.236047,"longitude":43.946615,"country":"Iraq","region":"Erbil Governorate","keywords":"Irbil, Kurdistan, فروکه‌خانه‌ی نيوده‌وله‌تی هه‌ولير","large":true},{"id":"LCEN","name":"Ercan International Airport","municipality":"Tymbou (Kirklar)","iata":"ECN","icao":"LCEN","latitude":35.153064,"longitude":33.507352,"country":"Cyprus","region":"Nicosia District","keywords":"Tymvou, Nicosia, Lefkoşa","large":true},{"id":"EDDE","name":"Erfurt-Weimar Airport","municipality":"Erfurt","iata":"ERF","icao":"EDDE","latitude":50.978281,"longitude":10.960713,"country":"Germany","region":"Thuringia","keywords":"Flughafen Erfurt-Weimar","large":true},{"id":"SKBQ","name":"Ernesto Cortissoz International Airport","municipality":"Barranquilla","iata":"BAQ","icao":"SKBQ","latitude":10.8896,"longitude":-74.7808,"country":"Colombia","region":"Atlántico Department","large":true},{"id":"LTAC","name":"Esenboğa International Airport","municipality":"Ankara","iata":"ESB","icao":"LTAC","latitude":40.128101,"longitude":32.995098,"country":"Turkey","region":"Ankara Province","large":true},{"id":"SBVT","name":"Eurico de Aguiar Salles International Airport","municipality":"Vitória","iata":"VIX","icao":"SBVT","latitude":-20.258,"longitude":-40.285,"country":"Brazil","region":"Espírito Santo","keywords":"Goiabeiras Airport","large":true},{"id":"LFSB","name":"EuroAirport Basel–Mulhouse–Freiburg","municipality":"Bâle / Mulhouse","iata":"BSL","icao":"LFSB","latitude":47.60068,"longitude":7.521117,"country":"France","region":"Grand Est","keywords":"MLH, EAP, LSZM, Bâle, Basle","large":true},{"id":"SAEZ","name":"Ezeiza International Airport - Ministro Pistarini","municipality":"Buenos Aires (Ezeiza)","iata":"EZE","icao":"SAEZ","latitude":-34.8222,"longitude":-58.5358,"country":"Argentina","region":"Buenos Aires Province","keywords":"BUE, Ezeiza International Airport","large":true},{"id":"ZHEC","name":"Ezhou Huahu International Airport","municipality":"Ezhou","iata":"EHU","icao":"ZHEC","latitude":30.341178,"longitude":115.03926,"country":"China","region":"Hubei Province","keywords":"EHU, ZHEC","large":true},{"id":"NTAA","name":"Fa'a'ā International Airport","municipality":"Papeete","iata":"PPT","icao":"NTAA","latitude":-17.553472,"longitude":-149.606936,"country":"French Polynesia","region":"(unassigned)","large":true},{"id":"OPFA","name":"Faisalabad International Airport","municipality":"Faisalabad","iata":"LYP","icao":"OPFA","latitude":31.364923,"longitude":72.995319,"country":"Pakistan","region":"Punjab","keywords":"OPLF","large":true},{"id":"LICJ","name":"Falcone–Borsellino Airport","municipality":"Palermo","iata":"PMO","icao":"LICJ","latitude":38.175999,"longitude":13.091,"country":"Italy","region":"Sicily","keywords":"Palermo Airport, Punta Raisi Airport","large":true},{"id":"NSFA","name":"Faleolo International Airport","municipality":"Apia","iata":"APW","icao":"NSFA","latitude":-13.83,"longitude":-172.007996,"country":"Samoa","region":"A'ana District","large":true},{"id":"LPFR","name":"Faro - Gago Coutinho International Airport","municipality":"Faro","iata":"FAO","icao":"LPFR","latitude":37.015909,"longitude":-7.970939,"country":"Portugal","region":"Faro District","large":true},{"id":"LIPR","name":"Federico Fellini International Airport","municipality":"Rimini (RN)","iata":"RMI","icao":"LIPR","latitude":44.020024,"longitude":12.612198,"country":"Italy","region":"Emilia-Romagna","keywords":"Rimini Miramare Airport, Rimini San Marino International Airport","large":true},{"id":"MMSM","name":"Felipe Ángeles International Airport","municipality":"Mexico City","iata":"NLU","icao":"MMSM","latitude":19.743824,"longitude":-99.01507,"country":"Mexico","region":"México (state)","keywords":"Santa Lucia AFB, Mexico City Santa Lucía Airport, Zumpango, Aeropuerto Internacional General Felipe Ángeles","large":true},{"id":"MMTL","name":"Felipe Carrillo Puerto International Airport Tulum","municipality":"Tulum","iata":"TQO","icao":"MMTL","latitude":20.172098,"longitude":-87.660272,"country":"Mexico","region":"Quintana Roo","large":true},{"id":"DIAP","name":"Félix-Houphouët-Boigny International Airport","municipality":"Abidjan","iata":"ABJ","icao":"DIAP","latitude":5.26139,"longitude":-3.92629,"country":"Côte d'Ivoire","region":"Abidjan (autonomous district)","keywords":"Port Bouët","large":true},{"id":"GMFF","name":"Fes Saïss International Airport","municipality":"Saïss","iata":"FEZ","icao":"GMFF","latitude":33.927299,"longitude":-4.97796,"country":"Morocco","region":"Fès-Meknès Region","large":true},{"id":"LFKF","name":"Figari Sud-Corse Airport","municipality":"Figari","iata":"FSC","icao":"LFKF","latitude":41.50185,"longitude":9.097092,"country":"France","region":"Corsica","large":true},{"id":"TNCB","name":"Flamingo International Airport","municipality":"Kralendijk","iata":"BON","icao":"TNCB","latitude":12.131,"longitude":-68.268501,"country":"Caribbean Netherlands","region":"Bonaire","keywords":"Bonaire","large":true},{"id":"LIRQ","name":"Florence Airport, Peretola","municipality":"Firenze (FI)","iata":"FLR","icao":"LIRQ","latitude":43.808558,"longitude":11.202822,"country":"Italy","region":"Tuscany","keywords":"Firenze, Amerigo Vespucci Airport, Aeroporto di Firenze-Peretola","large":true},{"id":"KFLL","name":"Fort Lauderdale Hollywood International Airport","municipality":"Fort Lauderdale","iata":"FLL","icao":"KFLL","latitude":26.072599,"longitude":-80.152702,"country":"United States","region":"Florida","keywords":"MFW, South Florida","large":true},{"id":"RPMD","name":"Francisco Bangoy International Airport","municipality":"Davao","iata":"DVO","icao":"RPMD","latitude":7.12552,"longitude":125.646004,"country":"Philippines","region":"Davao City","keywords":"Davao International Airport","large":true},{"id":"LPPR","name":"Francisco de Sá Carneiro Airport","municipality":"Porto","iata":"OPO","icao":"LPPR","latitude":41.2481002808,"longitude":-8.68138980865,"country":"Portugal","region":"Oporto District","large":true},{"id":"MUHG","name":"Frank Pais International Airport","municipality":"Holguin","iata":"HOG","icao":"MUHG","latitude":20.785148,"longitude":-76.315526,"country":"Cuba","region":"Holguín Province","large":true},{"id":"EDDF","name":"Frankfurt Main Airport","municipality":"Frankfurt am Main","iata":"FRA","icao":"EDDF","latitude":50.026706,"longitude":8.55835,"country":"Germany","region":"Hesse","keywords":"EDAF, Frankfurt am Main, Frankfurt Main, Rhein-Main Air Base, Zeppelinheim","large":true},{"id":"EDFH","name":"Frankfurt-Hahn Airport","municipality":"Frankfurt am Main (Lautzenhausen)","iata":"HHN","icao":"EDFH","latitude":49.946353,"longitude":7.261734,"country":"Germany","region":"Rhineland-Palatinate","large":true},{"id":"KROC","name":"Frederick Douglass Greater Rochester International Airport","municipality":"Rochester","iata":"ROC","icao":"KROC","latitude":43.1189,"longitude":-77.672401,"country":"United States","region":"New York","large":true},{"id":"KFAT","name":"Fresno Yosemite International Airport","municipality":"Fresno","iata":"FAT","icao":"KFAT","latitude":36.775767,"longitude":-119.718018,"country":"United States","region":"California","large":true},{"id":"NFTF","name":"Fua'amotu International Airport","municipality":"Nuku'alofa","iata":"TBU","icao":"NFTF","latitude":-21.241438,"longitude":-175.149164,"country":"Tonga","region":"Tongatapu","large":true},{"id":"GCFV","name":"Fuerteventura Airport","municipality":"El Matorral","iata":"FUE","icao":"GCFV","latitude":28.4527,"longitude":-13.8638,"country":"Spain","region":"Canary Islands","large":true},{"id":"OMFJ","name":"Fujairah International Airport","municipality":"Fujairah","iata":"FJR","icao":"OMFJ","latitude":25.108411,"longitude":56.328061,"country":"United Arab Emirates","region":"Fujairah Emirate","large":true},{"id":"RJFF","name":"Fukuoka Airport","municipality":"Fukuoka","iata":"FUK","icao":"RJFF","latitude":33.585899353027344,"longitude":130.4510040283203,"country":"Japan","region":"Fukuoka Prefecture","keywords":"Itazuke Air Base","large":true},{"id":"ZSFZ","name":"Fuzhou Changle International Airport","municipality":"Fuzhou (Changle)","iata":"FOC","icao":"ZSFZ","latitude":25.929254,"longitude":119.672524,"country":"China","region":"Fujian Province","large":true},{"id":"UWSG","name":"Gagarin International Airport","municipality":"Saratov","iata":"GSV","icao":"UWSG","latitude":51.712778,"longitude":46.171111,"country":"Russia","region":"Saratov Oblast","keywords":"УВСГ, Гагарин, Саратов","large":true},{"id":"VRMG","name":"Gan International Airport","municipality":"Gan","iata":"GAN","icao":"VRMG","latitude":-0.692975,"longitude":73.152627,"country":"Maldives","region":"Addu Atoll","keywords":"Addu City, Gan Airport","large":true},{"id":"UBBG","name":"Ganja International Airport","municipality":"Ganja","iata":"GNJ","icao":"UBBG","latitude":40.738692,"longitude":46.320383,"country":"Azerbaijan","region":"Ganja (city)","keywords":"KVD, Kirovabad, Gyandzha Airport, Аэропорт Гянджа, Ganca, Gəncə","large":true},{"id":"FKKR","name":"Garoua International Airport","municipality":"Garoua","iata":"GOU","icao":"FKKR","latitude":9.334785,"longitude":13.372129,"country":"Cameroon","region":"North Region","large":true},{"id":"VNBW","name":"Gautam Buddha International Airport","municipality":"Siddharthanagar (Bhairahawa)","iata":"BWA","icao":"VNBW","latitude":27.504636,"longitude":83.410381,"country":"Nepal","region":"Lumbini Province","keywords":"Bhairahawa Airport","large":true},{"id":"LTAJ","name":"Gaziantep Oğuzeli International Airport","municipality":"Gaziantep","iata":"GZT","icao":"LTAJ","latitude":36.947201,"longitude":37.478699,"country":"Turkey","region":"Gaziantep Province","large":true},{"id":"EPGD","name":"Gdańsk Lech Wałęsa Airport","municipality":"Gdańsk","iata":"GDN","icao":"EPGD","latitude":54.377602,"longitude":18.4662,"country":"Poland","region":"Pomeranian Voivodeship","keywords":"Gdańsk-Rębiechowo","large":true},{"id":"MMTJ","name":"General Abelardo L. Rodriguez International Airport","municipality":"Tijuana","iata":"TIJ","icao":"MMTJ","latitude":32.541043,"longitude":-116.969976,"country":"Mexico","region":"Baja California","large":true},{"id":"SAVC","name":"General Enrique Mosconi International Airport","municipality":"Comodoro Rivadavia","iata":"CRD","icao":"SAVC","latitude":-45.786941,"longitude":-67.463355,"country":"Argentina","region":"Chubut Province","large":true},{"id":"MMMM","name":"General Francisco J. Mujica International Airport","municipality":"Morelia","iata":"MLM","icao":"MMMM","latitude":19.849899,"longitude":-101.025002,"country":"Mexico","region":"Michoacán","large":true},{"id":"MMVR","name":"General Heriberto Jara International Airport","municipality":"Veracruz","iata":"VER","icao":"MMVR","latitude":19.139589,"longitude":-96.188602,"country":"Mexico","region":"Veracruz","large":true},{"id":"MMHO","name":"General Ignacio L. Pesqueira International Airport","municipality":"Hermosillo","iata":"HMO","icao":"MMHO","latitude":29.092811,"longitude":-111.053015,"country":"Mexico","region":"Sonora","large":true},{"id":"SVBC","name":"General José Antonio Anzoategui International Airport","municipality":"Barcelona","iata":"BLA","icao":"SVBC","latitude":10.111111,"longitude":-64.692222,"country":"Venezuela","region":"Anzoátegui State","keywords":"Barcelona, Puero La Cruz,Lecheria","large":true},{"id":"MMAA","name":"General Juan N. Álvarez International Airport","municipality":"Acapulco","iata":"ACA","icao":"MMAA","latitude":16.757126,"longitude":-99.753113,"country":"Mexico","region":"Guerrero","keywords":"Acapulco International Airport","large":true},{"id":"SVPR","name":"General Manuel Carlos Piar International Airport","municipality":"Guyana City","iata":"PZO","icao":"SVPR","latitude":8.28853,"longitude":-62.760399,"country":"Venezuela","region":"Bolívar State","keywords":"CGU","large":true},{"id":"KMKE","name":"General Mitchell International Airport","municipality":"Milwaukee","iata":"MKE","icao":"KMKE","latitude":42.947201,"longitude":-87.896599,"country":"United States","region":"Wisconsin","large":true},{"id":"MMMZ","name":"General Rafael Buelna International Airport","municipality":"Mazatlàn","iata":"MZT","icao":"MMMZ","latitude":23.162823,"longitude":-106.264517,"country":"Mexico","region":"Sinaloa","large":true},{"id":"MMCU","name":"General Roberto Fierro Villalobos International Airport","municipality":"Chihuahua","iata":"CUU","icao":"MMCU","latitude":28.702649,"longitude":-105.963764,"country":"Mexico","region":"Chihuahua","large":true},{"id":"RPMR","name":"General Santos International Airport","municipality":"General Santos","iata":"GES","icao":"RPMR","latitude":6.057208,"longitude":125.096243,"country":"Philippines","region":"South Cotabato Province","keywords":"Tambler Airport","large":true},{"id":"DNIL","name":"General Tunde Idiagbon International Airport","municipality":"Ilorin/Ogbomosho","iata":"ILR","icao":"DNIL","latitude":8.44021,"longitude":4.49392,"country":"Nigeria","region":"Kwara State","keywords":"Ilorin International Airport","large":true},{"id":"SESA","name":"General Ulpiano Paez International Airport","municipality":"Salinas/La Libertad","iata":"SNC","icao":"SESA","latitude":-2.210057,"longitude":-80.985067,"country":"Ecuador","region":"Santa Elena Province","large":true},{"id":"LSGG","name":"Geneva International Airport","municipality":"Geneva","iata":"GVA","icao":"LSGG","latitude":46.238098,"longitude":6.10895,"country":"Switzerland","region":"Geneva","keywords":"Cointrin Airport","large":true},{"id":"LIMJ","name":"Genoa Cristoforo Colombo Airport","municipality":"Genova (GE)","iata":"GOA","icao":"LIMJ","latitude":44.412039,"longitude":8.840732,"country":"Italy","region":"Liguria","keywords":"Genova Sestri, Sestri Cristoforo Colombo Airport, Cristoforo Colombo Airport","large":true},{"id":"FAGG","name":"George Airport","municipality":"George","iata":"GRJ","icao":"FAGG","latitude":-34.0056,"longitude":22.378902,"country":"South Africa","region":"Western Cape","keywords":"P.W. Botha Airport","large":true},{"id":"KIAH","name":"George Bush Intercontinental Airport","municipality":"Houston","iata":"IAH","icao":"KIAH","latitude":29.9844,"longitude":-95.3414,"country":"United States","region":"Texas","keywords":"QHO","large":true},{"id":"HAJJ","name":"Gerad Wilwal International Airport","municipality":"Jijiga","iata":"JIJ","icao":"HAJJ","latitude":9.331907,"longitude":42.911811,"country":"Ethiopia","region":"Somali Region","keywords":"Garaad Wiil-Waal","large":true},{"id":"KGRR","name":"Gerald R. Ford International Airport","municipality":"Grand Rapids","iata":"GRR","icao":"KGRR","latitude":42.880798,"longitude":-85.522797,"country":"United States","region":"Michigan","large":true},{"id":"LXGB","name":"Gibraltar Airport","municipality":"Gibraltar","iata":"GIB","icao":"LXGB","latitude":36.151679,"longitude":-5.34978,"country":"Gibraltar","region":"(unassigned)","large":true},{"id":"RKPK","name":"Gimhae International Airport","municipality":"Busan","iata":"PUS","icao":"RKPK","latitude":35.179501,"longitude":128.938004,"country":"South Korea","region":"Busan-gwangyeoksi (Busan Metropolitan City)","keywords":"김해국제공항, 金海國際空港, Kimhae, Pusan, Busan Airport","large":true},{"id":"LEGE","name":"Girona-Costa Brava Airport","municipality":"Girona","iata":"GRO","icao":"LEGE","latitude":41.904639,"longitude":2.761774,"country":"Spain","region":"Catalonia","keywords":"Girona, Costa Brava, Girona-Costa Brava","large":true},{"id":"EGPF","name":"Glasgow Airport","municipality":"Glasgow","iata":"GLA","icao":"EGPF","latitude":55.871899,"longitude":-4.43306,"country":"United Kingdom","region":"Scotland","keywords":"Port-adhair Eadar-nàiseanta Ghlaschu, RAF Abbotsinch, RAF Ayr","large":true},{"id":"EGPK","name":"Glasgow Prestwick Airport","municipality":"Prestwick, South Ayrshire","iata":"PIK","icao":"EGPK","latitude":55.501499,"longitude":-4.577182,"country":"United Kingdom","region":"Scotland","large":true},{"id":"VOGO","name":"Goa Dabolim International Airport","municipality":"Vasco da Gama","iata":"GOI","icao":"VOGO","latitude":15.380062,"longitude":73.833328,"country":"India","region":"Goa","keywords":"Goa Airport, Dabolim Navy Airbase, दाबोळी विमानतळ","large":true},{"id":"SASJ","name":"Gobernador Horacio Guzman International Airport","municipality":"San Salvador de Jujuy","iata":"JUJ","icao":"SASJ","latitude":-24.392799,"longitude":-65.097801,"country":"Argentina","region":"Jujuy Province","large":true},{"id":"YBCG","name":"Gold Coast Airport","municipality":"Gold Coast","iata":"OOL","icao":"YBCG","latitude":-28.165962,"longitude":153.506641,"country":"Australia","region":"Queensland","large":true},{"id":"UUDL","name":"Golden Ring Yaroslavl International Airport","municipality":"Tunoshna","iata":"IAR","icao":"UUDL","latitude":57.560699,"longitude":40.157398,"country":"Russia","region":"Yaroslavl Oblast","large":true},{"id":"FZNA","name":"Goma International Airport","municipality":"Goma","iata":"GOM","icao":"FZNA","latitude":-1.666758,"longitude":29.238037,"country":"Democratic Republic of the Congo","region":"Nord-Kivu Province","large":true},{"id":"ESGG","name":"Göteborg Landvetter Airport","municipality":"Göteborg","iata":"GOT","icao":"ESGG","latitude":57.6628,"longitude":12.2798,"country":"Sweden","region":"Västra Götalands län","keywords":"Göteborg-Landvetter, Gothenburg","large":true},{"id":"SBPV","name":"Governador Jorge Teixeira de Oliveira International Airport","municipality":"Porto Velho","iata":"PVH","icao":"SBPV","latitude":-8.708491,"longitude":-63.902338,"country":"Brazil","region":"Rondônia","large":true},{"id":"SAME","name":"Governor Francisco Gabrielli International Airport","municipality":"Mendoza","iata":"MDZ","icao":"SAME","latitude":-32.831699,"longitude":-68.7929,"country":"Argentina","region":"Mendoza Province","keywords":"El Plumerillo International Airport","large":true},{"id":"GCLP","name":"Gran Canaria Airport","municipality":"Gran Canaria Island","iata":"LPA","icao":"GCLP","latitude":27.9319,"longitude":-15.3866,"country":"Spain","region":"Canary Islands","keywords":"Canary Islands, Las Palmas Airport, Gando Airport","large":true},{"id":"MYGF","name":"Grand Bahama International Airport","municipality":"Freeport","iata":"FPO","icao":"MYGF","latitude":26.557996,"longitude":-78.695583,"country":"Bahamas","region":"City of Freeport","large":true},{"id":"TBPB","name":"Grantley Adams International Airport","municipality":"Bridgetown","iata":"BGI","icao":"TBPB","latitude":13.074667,"longitude":-59.491034,"country":"Barbados","region":"Christ Church","keywords":"Seawell","large":true},{"id":"LOWG","name":"Graz Airport","municipality":"Feldkirchen bei Graz","iata":"GRZ","icao":"LOWG","latitude":46.9911,"longitude":15.4396,"country":"Austria","region":"Styria","keywords":"Thalerhof Airport, Fliegerhorst Nittner, Nittner Air Base, Christophorus 12","large":true},{"id":"EHGG","name":"Groningen Airport Eelde","municipality":"Groningen","iata":"GRQ","icao":"EHGG","latitude":53.119107,"longitude":6.577652,"country":"Netherlands","region":"Drenthe","large":true},{"id":"MMGL","name":"Guadalajara International Airport","municipality":"Guadalajara","iata":"GDL","icao":"MMGL","latitude":20.523342,"longitude":-103.310108,"country":"Mexico","region":"Jalisco","keywords":"Miguel Hidalgo y Costilla Guadalajara","large":true},{"id":"MMLO","name":"Guanajuato International Airport","municipality":"Silao","iata":"BJX","icao":"MMLO","latitude":20.992695,"longitude":-101.480284,"country":"Mexico","region":"Guanajuato","keywords":"Del Bajío International Airport, León/Bajío International Airport","large":true},{"id":"ZGGG","name":"Guangzhou Baiyun International Airport","municipality":"Guangzhou (Huadu)","iata":"CAN","icao":"ZGGG","latitude":23.392401,"longitude":113.299004,"country":"China","region":"Guangdong Province","large":true},{"id":"SGES","name":"Guaraní International Airport","municipality":"Ciudad del Este","iata":"AGT","icao":"SGES","latitude":-25.457186,"longitude":-54.839544,"country":"Paraguay","region":"Alto Paraná Department","keywords":"Aeropuerto Internacional Guaraní","large":true},{"id":"ZGKL","name":"Guilin Liangjiang International Airport","municipality":"Guilin (Lingui)","iata":"KWL","icao":"ZGKL","latitude":25.219828,"longitude":110.039553,"country":"China","region":"Guangxi Autonomous Region","large":true},{"id":"ZUGY","name":"Guiyang Longdongbao International Airport","municipality":"Guiyang (Nanming)","iata":"KWE","icao":"ZUGY","latitude":26.541805,"longitude":106.80402,"country":"China","region":"Guizhou Province","keywords":"Kaiyang Guiyang Air Base, Guiyang Air Base","large":true},{"id":"SKSP","name":"Gustavo Rojas Pinilla International Airport","municipality":"San Andrés","iata":"ADZ","icao":"SKSP","latitude":12.5836,"longitude":-81.7112,"country":"Colombia","region":"San Andrés, Providencia y Santa Catalina Department","large":true},{"id":"ZJHK","name":"Haikou Meilan International Airport","municipality":"Haikou (Meilan)","iata":"HAK","icao":"ZJHK","latitude":19.9349,"longitude":110.459,"country":"China","region":"Hainan Province","keywords":"ZGHK","large":true},{"id":"OEHL","name":"Hail International Airport","municipality":"Hail","iata":"HAS","icao":"OEHL","latitude":27.437901,"longitude":41.686298,"country":"Saudi Arabia","region":"Ha'il Region","keywords":"Hail Airport","large":true},{"id":"RJCH","name":"Hakodate Airport","municipality":"Hakodate","iata":"HKD","icao":"RJCH","latitude":41.77,"longitude":140.822006,"country":"Japan","region":"Hokkaidō Prefecture","large":true},{"id":"CYHZ","name":"Halifax / Stanfield International Airport","municipality":"Halifax","iata":"YHZ","icao":"CYHZ","latitude":44.8807983398,"longitude":-63.5085983276,"country":"Canada","region":"Nova Scotia","keywords":"Robert L. Stanfield International Airport","large":true},{"id":"WIHH","name":"Halim Perdanakusuma International Airport","municipality":"Jakarta","iata":"HLP","icao":"WIHH","latitude":-6.266989,"longitude":106.890318,"country":"Indonesia","region":"Jakarta Raya","keywords":"WIIH, WIIX, WIID","large":true},{"id":"VIHX","name":"Halwara International Airport","municipality":"Halwara","iata":"HWR","icao":"VIHX","latitude":30.748501,"longitude":75.629799,"country":"India","region":"Punjab","keywords":"Ludhiana International Airport, Halwara Air Force Station","large":true},{"id":"OTHH","name":"Hamad International Airport","municipality":"Doha","iata":"DOH","icao":"OTHH","latitude":25.273056,"longitude":51.608056,"country":"Qatar","region":"Ad-Dawhah Municipality","keywords":"New Doha International Airport","large":true},{"id":"EDDH","name":"Hamburg Helmut Schmidt Airport","municipality":"Hamburg","iata":"HAM","icao":"EDDH","latitude":53.630402,"longitude":9.98823,"country":"Germany","region":"Hamburg","keywords":"Hamburg-Fuhlsbüttel Airport","large":true},{"id":"WIDD","name":"Hang Nadim International Airport","municipality":"Batam","iata":"BTH","icao":"WIDD","latitude":1.12103,"longitude":104.119003,"country":"Indonesia","region":"Kepulauan Riau (Riau Islands)","keywords":"WIKB","large":true},{"id":"ZSHC","name":"Hangzhou Xiaoshan International Airport","municipality":"Hangzhou","iata":"HGH","icao":"ZSHC","latitude":30.23609,"longitude":120.428865,"country":"China","region":"Zhejiang Province","keywords":"Hang Zhou, 杭州萧山国际机场","large":true},{"id":"VRMH","name":"Hanimaadhoo International Airport","municipality":"Haa Dhaalu Atoll","iata":"HAQ","icao":"VRMH","latitude":6.743235,"longitude":73.167072,"country":"Maldives","region":"Haa Dhaalu Atoll","large":true},{"id":"EDDV","name":"Hannover Airport","municipality":"Hannover","iata":"HAJ","icao":"EDDV","latitude":52.461102,"longitude":9.68508,"country":"Germany","region":"Lower Saxony","large":true},{"id":"ZYHB","name":"Harbin Taiping International Airport","municipality":"Harbin","iata":"HRB","icao":"ZYHB","latitude":45.623402,"longitude":126.25,"country":"China","region":"Heilongjiang Province","large":true},{"id":"FLLI","name":"Harry Mwanga Nkumbula International Airport","municipality":"Livingstone","iata":"LVI","icao":"FLHN","latitude":-17.821524,"longitude":25.819642,"country":"Zambia","region":"Southern Province","keywords":"FLLI","large":true},{"id":"KLAS","name":"Harry Reid International Airport","municipality":"Las Vegas","iata":"LAS","icao":"KLAS","latitude":36.083361,"longitude":-115.151817,"country":"United States","region":"Nevada","keywords":"McCarran International Airport","large":true},{"id":"ENEV","name":"Harstad/Narvik Airport","municipality":"Evenes","iata":"EVE","icao":"ENEV","latitude":68.491302,"longitude":16.678101,"country":"Norway","region":"Nordland","keywords":"Harstad/Narvik lufthavn, Evenes, Evenes Airport","large":true},{"id":"KATL","name":"Hartsfield Jackson Atlanta International Airport","municipality":"Atlanta","iata":"ATL","icao":"KATL","latitude":33.6367,"longitude":-84.428101,"country":"United States","region":"Georgia","large":true},{"id":"LTBY","name":"Hasan Polatkan Airport","municipality":"Eskişehir","iata":"AOE","icao":"LTBY","latitude":39.811644,"longitude":30.519268,"country":"Turkey","region":"Eskişehir Province","keywords":"Anadolu Airport","large":true},{"id":"VTSS","name":"Hat Yai International Airport","municipality":"Hat Yai","iata":"HDY","icao":"VTSS","latitude":6.93321,"longitude":100.392998,"country":"Thailand","region":"Songkhla Province","large":true},{"id":"TNCC","name":"Hato International Airport","municipality":"Willemstad","iata":"CUR","icao":"TNCC","latitude":12.1889,"longitude":-68.959801,"country":"Curaçao","region":"(unassigned)","keywords":"Curaçao","large":true},{"id":"HALA","name":"Hawassa International Airport","municipality":"Hawassa","iata":"AWA","icao":"HALA","latitude":7.100611,"longitude":38.396455,"country":"Ethiopia","region":"Sidama Region","keywords":"Awasa","large":true},{"id":"VGHS","name":"Hazrat Shahjalal International Airport","municipality":"Dhaka","iata":"DAC","icao":"VGHS","latitude":23.843347,"longitude":90.397783,"country":"Bangladesh","region":"Dhaka Division","keywords":"VGZR, Zia International Airport, Dacca International Airport, Hazrat Shahjalal International Airport","large":true},{"id":"UAIT","name":"Hazrat Sultan International Airport","municipality":"Turkıstan","iata":"HSA","icao":"UAIT","latitude":43.311087,"longitude":68.550352,"country":"Kazakhstan","region":"Turkistan Region","large":true},{"id":"ZSOF","name":"Hefei Xinqiao International Airport","municipality":"Hefei","iata":"HFE","icao":"ZSOF","latitude":31.98779,"longitude":116.9769,"country":"China","region":"Anhui Province","keywords":"合肥，合肥新桥机场","large":true},{"id":"EFHK","name":"Helsinki Vantaa Airport","municipality":"Helsinki (Vantaa)","iata":"HEL","icao":"EFHK","latitude":60.318363,"longitude":24.963341,"country":"Finland","region":"Uusimaa Region","large":true},{"id":"LGIR","name":"Heraklion International Nikos Kazantzakis Airport","municipality":"Heraklion","iata":"HER","icao":"LGIR","latitude":35.339699,"longitude":25.1803,"country":"Greece","region":"Crete","keywords":"Crete Island","large":true},{"id":"OAHR","name":"Herat - Khwaja Abdullah Ansari International Airport","municipality":"Guzara","iata":"HEA","icao":"OAHR","latitude":34.209999,"longitude":62.228298,"country":"Afghanistan","region":"Herat Province","large":true},